Timestamp (seconds),system activated, Acceleration in X (Gs),Acceleration in Y (Gs), Altitude (meters),Acceleration in X filtered by KF (Gs),Acceleration in Y filtered by KF (Gs),Acceleration in Z filtered by KF (Gs),Roll (degrees),Pitch (degrees),Yaw (degrees),Event type,level
0.55,0,-0.039,-0.05,0.044,-0.023,-0.029,0.026,-1.527,-0.157,-0.211,0,0
0.55,0,-0.039,-0.05,0.044,-0.033,-0.042,0.037,-1.527,-0.157,-0.211,0,0
0.55,0,-0.039,-0.05,0.044,-0.037,-0.047,0.041,-1.527,-0.157,-0.211,0,0
0.56,0,-0.021,-0.05,0.049,-0.033,-0.049,0.044,-1.527,-0.157,-0.211,0,0
0.6,0,0.011,-0.031,0.058,-0.015,-0.046,0.05,-1.528,-0.157,-0.213,0,0
0.7,0,0.006,0.013,0.034,0.008,-0.012,0.046,-1.528,-0.16,-0.225,0,0
0.8,0,-0.029,0.025,0.007,-0.008,0.001,0.028,-1.528,-0.166,-0.24,0,0
0.9,0,-0.027,0.005,-0.018,-0.017,0.004,0.011,-1.529,-0.172,-0.256,0,0
1,0,-0.077,0.079,0.005,-0.048,0.044,-0.008,-1.537,-0.174,-0.272,0,0
1.1,0,-0.083,0.034,0.042,-0.075,0.057,0.019,-1.547,-0.171,-0.287,0,0
1.2,0,-0.11,0.058,0.058,-0.087,0.045,0.043,-1.557,-0.169,-0.303,0,0
1.3,0,-0.01,0.003,0.05,-0.061,0.028,0.046,-1.562,-0.166,-0.32,0,0
1.4,0,0,-0.022,0.044,-0.021,0.004,0.046,-1.572,-0.168,-0.337,0,0
1.5,0,-0.03,0.034,0.018,-0.022,0.009,0.033,-1.579,-0.174,-0.355,0,0
1.6,0,-0.035,0.053,0.017,-0.029,0.031,0.024,-1.583,-0.175,-0.372,0,0
1.7,0,-0.036,0.04,0.032,-0.033,0.041,0.026,-1.59,-0.178,-0.389,0,0
1.82,0,-0.046,0.041,0.026,-0.038,0.039,0.029,-1.601,-0.181,-0.407,0,0
1.9,0,-0.066,0.022,0.016,-0.052,0.035,0.022,-1.609,-0.183,-0.425,0,0
2,0,-0.088,0.001,0.017,-0.071,0.013,0.019,-1.617,-0.181,-0.442,0,0
2.1,0,-0.078,0.014,0.006,-0.075,0.017,0.016,-1.626,-0.184,-0.46,0,0
2.2,0,-0.066,0.036,0.009,-0.073,0.02,0.009,-1.636,-0.189,-0.477,0,0
2.3,0,-0.087,0.066,-0.004,-0.077,0.043,0.003,-1.647,-0.195,-0.497,0,0
2.4,0,-0.056,0.044,-0.003,-0.074,0.049,-0.002,-1.652,-0.199,-0.514,0,0
2.51,0,-0.057,0.046,-0.006,-0.053,0.047,-0.003,-1.658,-0.202,-0.533,0,0
2.6,0,-0.093,0.05,-0.031,-0.075,0.048,-0.014,-1.663,-0.205,-0.551,0,0
2.7,0,-0.092,0.075,-0.041,-0.089,0.063,-0.034,-1.668,-0.208,-0.571,0,0
2.8,0,-0.06,0.074,-0.01,-0.076,0.059,-0.023,-1.676,-0.214,-0.593,0,0
2.9,0,-0.059,0.125,-0.018,-0.069,0.098,-0.017,-1.684,-0.217,-0.617,0,0
3.01,0,-0.045,0.122,-0.061,-0.053,0.11,-0.033,-1.688,-0.218,-0.642,0,0
3.1,0,-0.031,0.115,-0.054,-0.044,0.12,-0.05,-1.692,-0.221,-0.664,0,0
3.2,0,-0.031,0.151,-0.046,-0.036,0.125,-0.049,-1.698,-0.217,-0.687,0,0
3.31,0,-0.029,0.087,-0.036,-0.029,0.123,-0.04,-1.702,-0.211,-0.711,0,0
3.41,0,-0.049,0.154,-0.072,-0.034,0.12,-0.055,-1.706,-0.208,-0.736,0,0
3.52,0,-0.043,0.138,-0.091,-0.044,0.138,-0.078,-1.712,-0.204,-0.762,0,0
3.61,0,-0.045,0.163,-0.064,-0.042,0.148,-0.071,-1.719,-0.201,-0.789,0,0
3.72,0,-0.056,0.157,-0.077,-0.052,0.153,-0.072,-1.723,-0.203,-0.815,0,0
3.81,0,-0.024,0.14,-0.064,-0.045,0.15,-0.071,-1.718,-0.214,-0.84,0,0
3.91,0,-0.036,0.128,-0.07,-0.034,0.143,-0.07,-1.719,-0.22,-0.866,0,0
4.01,0,-0.031,0.146,-0.092,-0.033,0.144,-0.076,-1.724,-0.22,-0.894,0,0
4.11,0,-0.126,0.144,-0.126,-0.07,0.142,-0.101,-1.732,-0.218,-0.922,0,0
4.21,0,-0.048,0.201,-0.093,-0.081,0.159,-0.109,-1.741,-0.216,-0.949,0,0
4.31,0,-0.071,0.163,-0.089,-0.063,0.169,-0.092,-1.751,-0.214,-0.977,0,0
4.41,0,-0.079,0.198,-0.102,-0.069,0.182,-0.096,-1.758,-0.211,-1.004,0,0
4.51,0,-0.041,0.146,-0.106,-0.061,0.175,-0.107,-1.764,-0.206,-1.032,0,0
4.61,0,0.018,0.169,-0.09,-0.021,0.158,-0.095,-1.769,-0.202,-1.059,0,0
4.72,0,0.001,0.159,-0.123,-0.009,0.169,-0.101,-1.77,-0.198,-1.087,0,0
4.81,0,0.017,0.142,-0.134,0.005,0.157,-0.124,-1.77,-0.195,-1.112,0,0
4.92,0,-0.002,0.138,-0.13,0.005,0.146,-0.129,-1.772,-0.189,-1.136,0,0
5.01,0,-0.027,0.106,-0.116,-0.007,0.127,-0.125,-1.774,-0.182,-1.156,0,0
5.12,0,-0.045,0.066,-0.118,-0.026,0.098,-0.122,-1.777,-0.174,-1.172,0,0
5.22,0,-0.038,0.023,-0.102,-0.036,0.061,-0.105,-1.78,-0.166,-1.186,0,0
5.31,0,-0.061,-0.063,-0.085,-0.051,0.004,-0.099,-1.782,-0.158,-1.197,0,0
5.41,0,-0.04,-0.085,-0.13,-0.05,-0.046,-0.109,-1.783,-0.152,-1.206,0,0
5.51,0,-0.02,-0.089,-0.092,-0.036,-0.073,-0.106,-1.783,-0.147,-1.213,0,0
5.62,0,0.007,-0.117,-0.082,-0.01,-0.096,-0.097,-1.784,-0.144,-1.219,0,0
5.72,0,-0.043,-0.127,-0.107,-0.02,-0.116,-0.097,-1.784,-0.142,-1.224,0,0
5.82,0,-0.013,-0.105,-0.07,-0.02,-0.114,-0.084,-1.776,-0.128,-1.226,0,0
5.92,0,-0.025,-0.116,-0.096,-0.023,-0.117,-0.092,-1.776,-0.128,-1.229,0,0
6.02,0,0.033,-0.101,-0.073,-0.001,-0.108,-0.082,-1.774,-0.127,-1.232,0,0
6.12,0,-0.001,-0.098,-0.068,0.009,-0.099,-0.08,-1.765,-0.116,-1.233,0,0
6.22,0,0.046,-0.097,-0.079,0.021,-0.099,-0.07,-1.761,-0.114,-1.235,0,0
6.32,0,-0.011,-0.114,-0.075,0.015,-0.101,-0.082,-1.76,-0.112,-1.236,0,0
6.42,0,-0.041,-0.098,-0.052,-0.018,-0.106,-0.067,-1.76,-0.112,-1.237,0,0
6.51,0,-0.031,-0.093,-0.078,-0.025,-0.108,-0.063,-1.758,-0.105,-1.238,0,0
6.62,0,-0.009,-0.106,-0.077,-0.025,-0.098,-0.072,-1.754,-0.095,-1.239,0,0
6.72,0,-0.022,-0.084,-0.046,-0.015,-0.092,-0.065,-1.754,-0.096,-1.241,0,0
6.82,0,-0.002,-0.07,-0.056,-0.012,-0.082,-0.055,-1.753,-0.097,-1.242,0,0
6.92,0,0.018,-0.084,-0.038,0.001,-0.079,-0.05,-1.746,-0.093,-1.243,0,0
7.02,0,-0.011,-0.087,-0.056,0.002,-0.083,-0.049,-1.732,-0.082,-1.242,0,0
7.12,0,-0.003,-0.091,-0.069,-0.008,-0.087,-0.059,-1.729,-0.082,-1.242,0,0
7.22,0,-0.013,-0.097,-0.032,-0.009,-0.096,-0.052,-1.725,-0.077,-1.242,0,0
7.32,0,-0.024,-0.08,-0.025,-0.013,-0.086,-0.036,-1.721,-0.07,-1.242,0,0
7.42,0,-0.013,-0.046,-0.024,-0.019,-0.075,-0.026,-1.721,-0.072,-1.243,0,0
7.52,0,0.003,-0.09,-0.017,-0.014,-0.078,-0.021,-1.72,-0.074,-1.243,0,0
7.62,0,-0.015,-0.082,-0.084,0.002,-0.075,-0.046,-1.718,-0.077,-1.244,0,0
7.72,0,-0.03,-0.039,-0.082,-0.028,-0.055,-0.073,-1.716,-0.078,-1.245,0,0
7.83,0,-0.044,-0.059,-0.079,-0.026,-0.059,-0.074,-1.706,-0.07,-1.244,0,0
7.92,0,-0.043,-0.04,-0.091,-0.037,-0.047,-0.083,-1.699,-0.063,-1.244,0,0
8.02,0,-0.037,-0.043,-0.049,-0.044,-0.048,-0.074,-1.693,-0.057,-1.243,0,0
8.12,0,0.025,-0.022,-0.045,-0.012,-0.033,-0.053,-1.692,-0.055,-1.243,0,0
8.22,0,0.034,-0.09,-0.077,0.021,-0.055,-0.058,-1.686,-0.051,-1.242,0,0
8.32,0,-0.011,-0.084,-0.089,0.008,-0.071,-0.077,-1.685,-0.048,-1.24,0,0
8.42,0,-0.018,-0.132,-0.056,-0.005,-0.097,-0.075,-1.68,-0.034,-1.237,0,0
8.53,0,-0.068,-0.09,-0.06,-0.04,-0.107,-0.062,-1.67,-0.022,-1.234,0,0
8.63,0,0.014,-0.03,-0.048,-0.025,-0.069,-0.058,-1.661,-0.015,-1.232,0,0
8.72,0,0.016,-0.025,-0.032,0,-0.049,-0.046,-1.65,-0.01,-1.23,0,0
8.83,0,0.01,-0.023,-0.098,0.009,-0.023,-0.06,-1.641,-0.011,-1.227,0,0
8.92,0,0.041,-0.046,-0.102,0.026,-0.043,-0.093,-1.64,-0.009,-1.225,0,0
9.02,0,-0.011,-0.079,-0.054,0.011,-0.052,-0.078,-1.634,-0.005,-1.222,0,0
9.12,0,-0.005,-0.055,-0.07,0,-0.055,-0.07,-1.625,-0.002,-1.219,0,0
9.22,0,-0.016,-0.034,-0.052,-0.005,-0.054,-0.059,-1.619,0.005,-1.217,0,0
9.32,0,-0.022,-0.026,-0.09,-0.012,-0.032,-0.068,-1.618,0.004,-1.216,0,0
9.42,0,-0.048,-0.007,-0.084,-0.032,-0.027,-0.085,-1.615,0.004,-1.214,0,0
9.52,0,-0.011,-0.009,-0.019,-0.027,-0.012,-0.055,-1.612,0.006,-1.211,0,0
9.62,0,-0.012,-0.015,-0.061,-0.013,-0.009,-0.046,-1.607,0.007,-1.209,0,0
9.73,0,-0.011,-0.03,-0.05,-0.016,-0.022,-0.055,-1.595,0.01,-1.207,0,0
9.83,0,-0.015,-0.036,-0.058,-0.017,-0.027,-0.058,-1.59,0.016,-1.205,0,0
9.93,0,0.004,-0.006,-0.045,-0.008,-0.026,-0.05,-1.586,0.018,-1.203,0,0
10.03,0,0.03,-0.002,-0.035,0.01,-0.009,-0.041,-1.581,0.017,-1.202,0,0
10.13,0,0.023,0.034,-0.03,0.018,0.009,-0.036,-1.577,0.013,-1.202,0,0
10.23,0,0.006,0.043,-0.017,0.02,0.027,-0.026,-1.575,0.009,-1.202,0,0
10.33,0,0.024,0.039,0.016,0.016,0.041,-0.009,-1.575,0.004,-1.204,0,0
10.43,0,0.004,0.057,0.01,0.014,0.045,0.007,-1.576,-0.002,-1.205,0,0
10.53,0,-0.024,0.016,-0.019,-0.001,0.034,0,-1.575,-0.003,-1.207,0,0
10.63,0,-0.023,0.018,-0.001,-0.018,0.026,-0.006,-1.579,-0.003,-1.207,0,0
10.73,0,-0.012,0.007,0.006,-0.021,0.015,-0.005,-1.582,-0.003,-1.208,0,0
10.83,0,0.03,0.03,0.013,0.003,0.022,0.003,-1.583,-0.004,-1.209,0,0
10.94,0,-0.003,0.031,0.002,0.006,0.02,0.01,-1.584,-0.002,-1.21,0,0
11.04,0,0.093,-0.003,0.006,0.038,0.019,0.003,-1.583,0,-1.212,0,0
11.13,0,-0.043,-0.006,0.015,0.024,0.003,0.012,-1.582,0.001,-1.212,0,0
11.23,0,-0.039,0.01,-0.002,-0.013,0.002,0.007,-1.582,0.003,-1.212,0,0
11.33,0,0.011,-0.019,0.021,-0.011,-0.003,0.011,-1.585,0.002,-1.213,0,0
11.43,0,-0.003,0.012,0.033,-0.009,0.001,0.02,-1.585,-0.001,-1.214,0,0
11.53,0,0.015,0.008,-0.02,0.003,0.008,0.006,-1.582,-0.001,-1.214,0,0
11.63,0,0.001,0.007,-0.014,0.003,0.008,-0.008,-1.582,0.002,-1.215,0,0
11.73,0,0.001,0.001,0.012,0.004,0.002,0.001,-1.584,0.003,-1.214,0,0
11.83,0,0.007,-0.027,0.016,0.003,-0.011,0.005,-1.585,0.003,-1.213,0,0
11.93,0,0.033,-0.009,0.024,0.019,-0.015,0.019,-1.585,0.003,-1.213,0,0
12.04,0,0.016,0.001,-0.015,0.021,-0.003,0.006,-1.581,0.003,-1.213,0,0
12.14,0,-0.039,-0.004,0.009,-0.003,0.002,0.001,-1.58,0.005,-1.213,0,0
12.24,0,-0.023,-0.027,0.002,-0.017,-0.012,0.001,-1.584,0.01,-1.212,0,0
12.34,0,-0.046,-0.041,0.008,-0.032,-0.025,0.011,-1.587,0.014,-1.211,0,0
12.43,0,-0.009,-0.018,-0.003,-0.034,-0.036,-0.001,-1.588,0.014,-1.211,0,0
12.53,0,0.01,-0.019,-0.001,-0.005,-0.02,0.001,-1.588,0.012,-1.212,0,0
12.64,0,0.02,0.078,-0.011,0.008,0.021,0,-1.586,0.007,-1.212,0,0
12.74,0,0.017,-0.011,-0.031,0.017,0.014,-0.019,-1.586,0.005,-1.212,0,0
12.84,0,-0.025,0.01,-0.023,0,0.015,-0.026,-1.585,0.003,-1.212,0,0
12.94,0,0.002,0.002,-0.003,-0.003,0.005,-0.014,-1.587,0.004,-1.212,0,0
13.04,0,0.011,0.002,-0.012,0,0.008,-0.008,-1.586,0.004,-1.211,0,0
13.14,0,-0.038,-0.023,-0.023,-0.011,-0.015,-0.016,-1.582,0.005,-1.211,0,0
13.24,0,0.012,0.026,0.022,-0.01,0.012,-0.003,-1.58,0.004,-1.211,0,0
13.34,0,-0.021,-0.035,0.009,-0.004,-0.011,0.008,-1.581,0.004,-1.211,0,0
13.44,0,-0.014,-0.011,-0.011,-0.02,-0.013,-0.001,-1.58,0.003,-1.211,0,0
13.54,0,-0.024,-0.012,-0.022,-0.016,-0.018,-0.011,-1.581,0.004,-1.212,0,0
13.64,0,-0.019,0.031,0.001,-0.022,0.006,-0.01,-1.583,0.003,-1.212,0,0
13.74,0,-0.022,-0.016,0.011,-0.02,-0.001,0.005,-1.584,0.002,-1.212,0,0
13.84,0,0.04,0.043,0.014,0.001,0.02,0.01,-1.582,0.003,-1.212,0,0
13.94,0,0.06,0.015,0.012,0.036,0.015,0.01,-1.579,0.005,-1.212,0,0
14.04,0,0.051,0.015,-0.009,0.052,0.022,0.007,-1.576,0.006,-1.213,0,0
14.14,0,-0.001,-0.005,-0.016,0.027,0.001,-0.01,-1.573,0.004,-1.213,0,0
14.24,0,-0.06,0.009,-0.013,-0.01,0.015,-0.017,-1.577,0.004,-1.214,0,0
14.34,0,-0.139,0.022,-0.026,-0.068,0.008,-0.009,-1.579,0.004,-1.214,0,0
14.44,0,-0.033,0.016,0.006,-0.072,0.021,-0.009,-1.584,0.003,-1.216,0,0
14.54,0,0.025,0.025,0.01,-0.042,0.02,-0.006,-1.59,0.004,-1.215,0,0
14.64,0,0.093,0.015,0.035,0.04,0.013,0.016,-1.59,0.003,-1.216,0,0
14.74,0,0.083,0.002,-0.004,0.062,0.011,0.02,-1.585,0.003,-1.216,0,0
14.85,0,0.03,0.019,-0.029,0.062,0.013,-0.009,-1.582,0.004,-1.217,0,0
14.94,0,-0.033,0.011,-0.008,0.018,0.016,-0.017,-1.584,0.001,-1.217,0,0
15.04,0,-0.109,-0.002,0.012,-0.051,0.006,0.001,-1.586,0,-1.216,0,0
15.14,0,-0.049,0.011,0.016,-0.062,0.008,0.007,-1.59,0.006,-1.216,0,0
15.24,0,-0.017,-0.014,0.016,-0.049,-0.005,0.014,-1.593,0.008,-1.216,0,0
15.34,0,0.022,-0.001,0.019,-0.01,-0.004,0.016,-1.594,0.009,-1.216,0,0
15.44,0,0.034,0.001,-0.015,0.018,-0.003,0.004,-1.593,0.007,-1.217,0,0
15.54,0,0.007,0.017,0.004,0.021,0.007,-0.001,-1.594,0.006,-1.217,0,0
15.64,0,-0.017,0.031,0.002,-0.001,0.021,0.001,-1.593,0.003,-1.218,0,0
15.74,0,0.036,0.021,0.026,0.01,0.023,0.013,-1.594,0.003,-1.218,0,0
15.85,0,0.002,0.01,0.016,0.014,0.017,0.02,-1.595,0.004,-1.218,0,0
15.94,0,0,0.005,0.011,0.002,0.009,0.01,-1.594,0.004,-1.218,0,0
16.04,0,-0.009,-0.022,0.025,0.005,-0.003,0.019,-1.597,0.003,-1.219,0,0
16.15,0,-0.023,0.009,0.012,-0.02,-0.006,0.018,-1.599,0.002,-1.22,0,0
16.25,0,0.025,-0.024,0.069,0.005,-0.007,0.039,-1.606,0.003,-1.22,0,0
16.35,0,0.043,0.015,0.032,0.017,0.002,0.048,-1.606,-0.002,-1.22,0,0
16.45,0,0.051,0.016,-0.017,0.047,0.012,0.011,-1.603,-0.001,-1.222,0,0
16.55,0,0.02,0.027,0.011,0.031,0.013,0.002,-1.603,0,-1.222,0,0
16.65,0,0.038,0.033,0.043,0.033,0.027,0.021,-1.603,0.002,-1.223,0,0
16.75,0,-0.046,0.004,-0.035,0.003,0.018,0.008,-1.598,0.004,-1.224,0,0
16.85,0,-0.084,0.022,-0.054,-0.039,0.018,-0.033,-1.596,0.005,-1.225,0,0
16.95,0,-0.105,0.007,0.038,-0.082,0.011,-0.009,-1.603,0.008,-1.226,0,0
17.06,0,-0.03,0.014,0.015,-0.069,0.013,0.015,-1.605,0.008,-1.227,0,0
17.15,0,0.032,0.001,-0.026,-0.015,0.01,0.001,-1.603,0.009,-1.228,0,0
17.26,0,0.007,0.013,-0.043,0.005,0.007,-0.023,-1.599,0.008,-1.229,0,0
17.35,0,-0.01,0.017,-0.023,0.003,0.012,-0.031,-1.595,0.004,-1.23,0,0
17.46,0,-0.034,0.01,-0.006,-0.021,0.015,-0.017,-1.595,0.001,-1.231,0,0
17.56,0,-0.03,0,-0.016,-0.025,0.005,-0.016,-1.594,-0.002,-1.231,0,0
17.66,0,-0.028,0.006,-0.017,-0.027,0.007,-0.015,-1.593,-0.004,-1.231,0,0
17.76,0,-0.017,0.002,-0.019,-0.025,0.003,-0.016,-1.592,-0.004,-1.231,0,0
17.86,0,-0.004,-0.015,-0.024,-0.014,-0.005,-0.018,-1.591,-0.001,-1.232,0,0
17.95,0,-0.012,-0.003,-0.017,-0.011,-0.003,-0.022,-1.588,0,-1.232,0,0
18.05,0,-0.026,-0.023,-0.046,-0.018,-0.015,-0.03,-1.586,0.001,-1.232,0,0
18.16,0,0.002,-0.009,-0.029,-0.011,-0.016,-0.032,-1.583,0.001,-1.232,0,0
18.26,0,-0.006,-0.007,-0.029,-0.002,-0.006,-0.031,-1.58,0.001,-1.233,0,0
18.36,0,-0.027,0.016,-0.035,-0.022,-0.001,-0.034,-1.577,-0.001,-1.232,0,0
18.45,0,0.004,-0.029,-0.015,-0.004,-0.005,-0.027,-1.574,0,-1.232,0,0
18.55,0,0.01,0.003,-0.045,0,-0.003,-0.034,-1.572,0.002,-1.232,0,0
18.66,0,-0.015,0.006,-0.003,0.004,-0.008,-0.019,-1.569,0.006,-1.232,0,0
18.76,0,0.002,-0.064,-0.017,-0.01,-0.026,-0.014,-1.571,0.005,-1.231,0,0
18.86,0,-0.022,-0.014,-0.022,-0.011,-0.029,-0.019,-1.572,0.003,-1.231,0,0
18.96,0,-0.018,0.005,-0.045,-0.016,-0.012,-0.033,-1.571,0,-1.231,0,0
19.06,0,-0.018,0.03,-0.025,-0.018,0.011,-0.03,-1.568,-0.003,-1.23,0,0
19.16,0,-0.012,0.028,-0.023,-0.015,0.026,-0.021,-1.566,-0.002,-1.23,0,0
19.26,0,0.033,0.013,-0.019,-0.003,0.018,-0.028,-1.565,-0.001,-1.229,0,0
19.36,0,0.023,-0.028,-0.014,0.024,-0.003,-0.017,-1.562,0,-1.229,0,0
19.47,0,0.022,-0.033,-0.05,0.025,-0.017,-0.028,-1.556,0.001,-1.229,0,0
19.56,0,0.001,-0.022,-0.032,0.014,-0.028,-0.035,-1.554,0.003,-1.23,0,0
19.66,0,0.005,0.001,-0.026,0.006,-0.011,-0.032,-1.552,0.001,-1.23,0,0
19.76,0,-0.024,-0.002,-0.033,-0.015,-0.008,-0.033,-1.552,0,-1.23,0,0
19.86,0,-0.04,0.02,-0.039,-0.022,0.009,-0.03,-1.549,-0.003,-1.23,0,0
19.96,0,0.018,0.034,-0.017,-0.007,0.019,-0.031,-1.545,-0.004,-1.23,0,0
20.07,0,-0.016,0.025,-0.007,-0.005,0.027,-0.015,-1.541,-0.003,-1.23,0,0
20.16,0,-0.017,-0.002,-0.012,-0.015,0.011,-0.016,-1.541,-0.001,-1.23,0,0
20.26,0,0.005,0.003,0.021,-0.005,0.008,0.003,-1.542,0,-1.23,0,0
20.36,0,-0.026,-0.015,0.016,-0.011,-0.005,0.015,-1.545,0.001,-1.23,0,0
20.46,0,0.015,-0.034,0.027,-0.005,-0.021,0.02,-1.546,0.001,-1.229,0,0
20.56,0,0.003,-0.018,-0.009,0.003,-0.021,0.008,-1.547,-0.001,-1.229,0,0
20.67,0,-0.021,-0.021,0.012,-0.001,-0.017,0.004,-1.548,-0.002,-1.229,0,0
20.76,0,-0.016,-0.014,0.037,-0.014,-0.02,0.019,-1.552,-0.003,-1.228,0,0
20.86,0,-0.035,0,0.058,-0.026,-0.01,0.038,-1.558,-0.003,-1.228,0,0
20.96,0,-0.009,-0.006,0.07,-0.018,-0.005,0.056,-1.566,-0.004,-1.227,0,0
21.06,0,0.008,0.005,0.074,-0.007,-0.004,0.071,-1.572,-0.003,-1.225,0,0
21.16,0,0,-0.008,0.055,0,0.001,0.061,-1.576,-0.002,-1.224,0,0
21.26,0,0.013,0.011,0.062,0.005,0.001,0.061,-1.581,0.001,-1.223,0,0
21.37,0,-0.027,-0.035,0.086,-0.005,-0.014,0.072,-1.587,0.005,-1.222,0,0
21.46,0,-0.034,-0.027,0.06,-0.023,-0.028,0.064,-1.592,0.007,-1.221,0,0
21.56,0,0.016,-0.027,0.076,-0.012,-0.029,0.068,-1.6,0.007,-1.22,0,0
21.66,0,0.074,-0.012,0.063,0.034,-0.018,0.072,-1.603,0.005,-1.22,0,0
21.76,0,-0.067,-0.023,0.05,0,-0.021,0.065,-1.603,0.003,-1.219,0,0
21.88,0,-0.031,0.018,0.067,-0.028,0.002,0.06,-1.606,0.001,-1.218,0,0
21.96,0,-0.024,0.014,0.081,-0.028,0.01,0.072,-1.609,0.001,-1.217,0,0
22.06,0,0.011,0.005,0.06,-0.012,0.004,0.069,-1.61,0,-1.217,0,0
22.16,0,0.056,0.016,0.088,0.023,0.011,0.072,-1.615,0.003,-1.216,0,0
22.26,0,0.034,0.017,0.119,0.033,0.017,0.093,-1.625,0.006,-1.214,0,0
22.37,0,-0.004,-0.014,0.117,0.021,0.004,0.111,-1.632,0.009,-1.212,0,0
22.48,0,-0.009,-0.039,0.129,0.002,-0.02,0.116,-1.646,0.015,-1.211,0,0
22.58,0,-0.031,-0.006,0.136,-0.009,-0.014,0.134,-1.66,0.016,-1.209,0,0
22.67,0,-0.037,0.009,0.095,-0.036,-0.01,0.113,-1.67,0.018,-1.207,0,0
22.77,0,-0.016,-0.061,0.087,-0.019,-0.02,0.1,-1.681,0.023,-1.204,0,0
22.87,0,-0.053,-0.01,0.079,-0.033,-0.022,0.09,-1.686,0.026,-1.202,0,0
22.97,0,-0.06,-0.048,0.088,-0.055,-0.044,0.084,-1.689,0.026,-1.199,0,0
23.08,0,-0.043,-0.022,0.086,-0.049,-0.026,0.088,-1.691,0.027,-1.197,0,0
23.17,0,0.029,-0.009,0.078,-0.016,-0.021,0.084,-1.696,0.027,-1.196,0,0
23.27,0,0.018,0.005,0.056,0.01,-0.007,0.072,-1.702,0.024,-1.195,0,0
23.37,0,-0.034,-0.003,0.064,-0.011,-0.001,0.063,-1.708,0.022,-1.195,0,0
23.47,0,-0.025,0.034,0.062,-0.018,0.013,0.064,-1.716,0.016,-1.195,0,0
23.57,1,-0.028,0.022,0.054,-0.022,0.02,0.063,-1.721,0.015,-1.194,0,0
23.68,1,-0.026,0.035,0.012,-0.024,0.029,0.04,-1.724,0.016,-1.193,0,0
23.77,1,-0.029,0.012,0.016,-0.028,0.025,0.02,-1.727,0.015,-1.192,0,0
23.87,1,-0.005,0.014,0.041,-0.019,0.018,0.032,-1.73,0.016,-1.192,0,0
23.97,1,0.011,-0.026,0.025,-0.002,-0.004,0.03,-1.731,0.018,-1.191,0,0
24.07,1,-0.006,-0.037,0.005,-0.002,-0.02,0.019,-1.731,0.019,-1.189,0,0
24.18,1,-0.011,-0.049,0.009,-0.002,-0.037,0.009,-1.731,0.021,-1.187,0,0
24.27,1,-0.048,-0.044,0.019,-0.028,-0.041,0.012,-1.733,0.022,-1.185,0,0
24.37,1,-0.072,-0.034,0.037,-0.047,-0.039,0.025,-1.737,0.025,-1.183,0,0
24.47,1,-0.048,-0.023,0.006,-0.058,-0.035,0.021,-1.739,0.025,-1.18,0,0
24.57,1,-0.025,-0.078,0.009,-0.036,-0.048,0.013,-1.739,0.024,-1.178,0,0
24.67,1,0.01,-0.056,0.013,-0.017,-0.058,0.015,-1.737,0.024,-1.175,0,0
24.77,1,-0.026,-0.045,-0.008,-0.017,-0.057,0.002,-1.735,0.026,-1.173,0,0
24.87,1,-0.011,-0.037,0.009,-0.019,-0.04,-0.002,-1.735,0.023,-1.171,0,0
24.98,1,-0.038,0.006,-0.002,-0.021,-0.019,0.006,-1.736,0.021,-1.17,0,0
25.07,1,-0.018,-0.001,-0.008,-0.022,-0.003,-0.006,-1.734,0.02,-1.168,0,0
25.17,1,0.052,0.006,0.009,0.004,-0.002,0.007,-1.732,0.019,-1.167,0,0
25.27,1,0.039,0.025,-0.015,0.033,0.006,-0.005,-1.731,0.018,-1.167,0,0
25.38,1,-0.046,0.018,-0.07,0.001,0.016,-0.034,-1.726,0.018,-1.167,0,0
25.48,1,-0.005,0.012,-0.119,-0.015,0.017,-0.073,-1.716,0.019,-1.167,0,0
25.57,1,-0.029,0.014,-0.187,-0.015,0.015,-0.131,-1.705,0.019,-1.167,0,0
25.68,1,-0.081,0.015,-0.173,-0.043,0.014,-0.165,-1.693,0.017,-1.166,0,0
25.78,1,-0.024,-0.002,-0.15,-0.055,0.008,-0.165,-1.683,0.015,-1.166,0,0
25.88,1,0.034,-0.001,-0.12,0.001,0.003,-0.135,-1.672,0.013,-1.166,0,0
25.99,1,-0.023,0.012,-0.135,-0.001,0.008,-0.132,-1.659,0.009,-1.166,0,0
26.08,1,-0.056,0.034,-0.104,-0.039,0.022,-0.129,-1.648,0.003,-1.167,0,0
26.19,1,-0.047,-0.022,-0.085,-0.041,0.003,-0.096,-1.644,0.002,-1.167,0,0
26.28,1,-0.018,0.003,-0.102,-0.03,-0.005,-0.101,-1.643,0,-1.168,0,0
26.38,1,0.085,0.047,-0.096,0.016,0.015,-0.098,-1.642,-0.003,-1.171,0,0
26.48,1,-0.009,0.078,-0.119,0.026,0.049,-0.104,-1.643,-0.006,-1.173,0,0
26.58,1,-0.017,0.043,-0.143,-0.001,0.058,-0.124,-1.64,-0.005,-1.174,0,0
26.68,1,-0.037,0,-0.147,-0.018,0.029,-0.142,-1.624,-0.005,-1.173,0,0
26.78,1,-0.022,-0.008,-0.098,-0.024,0.01,-0.124,-1.619,-0.003,-1.173,0,0
26.88,1,-0.036,-0.016,-0.075,-0.031,-0.008,-0.099,-1.614,-0.002,-1.173,0,0
26.98,1,-0.012,0.003,-0.061,-0.02,-0.004,-0.076,-1.609,-0.006,-1.174,0,0
27.08,1,-0.032,0.035,-0.06,-0.02,0.016,-0.064,-1.603,-0.014,-1.175,0,0
27.19,1,0.039,0.044,-0.013,-0.009,0.023,-0.051,-1.599,-0.015,-1.175,0,0
27.28,1,0.054,0.017,0.012,0.032,0.027,-0.009,-1.597,-0.014,-1.175,0,0
27.39,1,-0.007,-0.01,-0.059,0.021,0.013,-0.029,-1.594,-0.009,-1.175,0,0
27.48,1,-0.032,-0.034,0.018,-0.014,-0.009,-0.018,-1.597,-0.006,-1.174,0,0
27.58,1,0.025,-0.002,-0.022,0.005,-0.015,-0.004,-1.595,-0.007,-1.175,0,0
27.68,1,-0.001,-0.021,-0.015,0.013,-0.02,-0.02,-1.593,-0.01,-1.176,0,0
27.8,1,-0.071,0.032,-0.001,-0.031,0.005,-0.012,-1.594,-0.013,-1.177,0,0
27.88,1,0.014,-0.008,0.055,-0.024,0.002,0.02,-1.598,-0.013,-1.177,0,0
28,1,0.074,0.005,-0.01,0.022,0.006,0.02,-1.598,-0.017,-1.178,0,0
28.08,1,0.035,0.002,-0.022,0.049,0.004,-0.007,-1.597,-0.017,-1.179,0,0
28.18,1,-0.027,-0.009,-0.019,0.017,-0.005,-0.016,-1.598,-0.02,-1.179,0,0
28.28,1,-0.074,0.006,0.019,-0.034,0.001,-0.001,-1.601,-0.025,-1.18,0,0
28.39,1,-0.051,0.013,0.021,-0.054,0.006,0.012,-1.604,-0.026,-1.181,0,0
28.48,1,-0.032,-0.004,0,-0.041,0,0.011,-1.604,-0.026,-1.181,0,0
28.59,1,-0.03,0.018,0.011,-0.035,0.011,0.006,-1.605,-0.029,-1.182,0,0
28.68,1,-0.008,0,0.043,-0.023,0.011,0.02,-1.611,-0.028,-1.182,0,0
28.79,1,-0.034,-0.03,0.043,-0.024,-0.01,0.037,-1.614,-0.022,-1.182,0,0
28.88,1,-0.001,-0.042,0.068,-0.019,-0.027,0.05,-1.617,-0.017,-1.183,0,0
28.99,1,0.013,-0.009,0.043,-0.001,-0.021,0.056,-1.616,-0.016,-1.183,0,0
29.1,1,0.004,-0.011,0.03,0.009,-0.016,0.039,-1.619,-0.011,-1.182,0,0
29.19,1,-0.025,-0.034,0.056,-0.011,-0.026,0.043,-1.625,-0.01,-1.18,0,0
29.29,1,-0.024,-0.035,0.039,-0.018,-0.029,0.048,-1.629,-0.01,-1.179,0,0
29.39,1,-0.033,-0.037,0.029,-0.029,-0.029,0.035,-1.63,-0.007,-1.179,0,0
29.49,1,-0.018,-0.022,0.015,-0.021,-0.035,0.03,-1.632,-0.006,-1.179,0,0
29.6,1,-0.013,0.022,-0.036,-0.019,-0.009,-0.003,-1.63,-0.009,-1.179,0,0
29.69,1,-0.015,0.028,-0.055,-0.017,0.016,-0.033,-1.625,-0.012,-1.179,0,0
29.79,1,-0.023,-0.015,-0.05,-0.018,0.007,-0.044,-1.623,-0.013,-1.178,0,0
29.89,1,-0.043,-0.032,-0.056,-0.024,-0.012,-0.049,-1.618,-0.01,-1.177,0,0
29.99,1,-0.056,-0.038,-0.055,-0.046,-0.03,-0.054,-1.614,-0.009,-1.176,0,0
30.09,1,-0.043,-0.052,-0.055,-0.045,-0.044,-0.051,-1.61,-0.007,-1.176,0,0
30.19,1,-0.008,0.002,-0.037,-0.03,-0.025,-0.049,-1.607,-0.008,-1.175,0,0
30.29,1,-0.018,-0.006,-0.045,-0.022,-0.016,-0.046,-1.605,-0.01,-1.173,0,0
30.4,1,-0.051,-0.049,-0.044,-0.036,-0.023,-0.047,-1.602,-0.007,-1.17,0,0
30.49,1,-0.023,-0.06,-0.021,-0.03,-0.042,-0.032,-1.601,-0.004,-1.168,0,0
30.59,1,0.007,-0.077,-0.042,-0.021,-0.057,-0.038,-1.598,0.002,-1.165,0,0
30.69,1,0.036,-0.035,-0.017,0.012,-0.054,-0.025,-1.595,0.005,-1.163,0,0
30.79,1,-0.037,-0.036,-0.063,0.008,-0.046,-0.041,-1.59,0.007,-1.16,0,0
30.89,1,-0.063,-0.067,-0.007,-0.038,-0.054,-0.032,-1.59,0.006,-1.158,0,0
31,1,0.002,-0.03,-0.041,-0.028,-0.044,-0.029,-1.586,0.006,-1.155,0,0
31.1,1,-0.031,-0.043,-0.033,-0.022,-0.043,-0.036,-1.584,0.008,-1.152,0,0
31.19,1,-0.046,-0.024,-0.035,-0.035,-0.032,-0.034,-1.583,0.013,-1.148,0,0
31.29,1,-0.038,-0.051,-0.002,-0.037,-0.037,-0.028,-1.584,0.017,-1.144,0,0
31.39,1,-0.039,-0.019,-0.027,-0.038,-0.035,-0.011,-1.585,0.028,-1.141,0,0
31.49,1,-0.029,-0.02,-0.007,-0.034,-0.032,-0.015,-1.588,0.033,-1.137,0,0
31.6,1,-0.026,-0.028,0.028,-0.03,-0.026,0.002,-1.589,0.033,-1.134,0,0
31.7,1,-0.004,-0.005,0.013,-0.017,-0.016,0.016,-1.59,0.034,-1.131,0,0
31.79,1,-0.009,-0.011,-0.001,-0.013,-0.011,0.003,-1.589,0.035,-1.129,0,0
31.89,1,0.015,-0.011,-0.008,0.003,-0.007,-0.001,-1.587,0.034,-1.128,0,0
32,1,0.02,0.009,-0.002,0.015,-0.003,-0.002,-1.584,0.035,-1.126,0,0
32.09,1,-0.013,0.013,-0.041,-0.003,0.007,-0.021,-1.582,0.033,-1.124,0,0
32.21,1,-0.055,-0.022,-0.008,-0.022,-0.002,-0.021,-1.58,0.033,-1.121,0,0
32.3,1,-0.023,-0.036,-0.011,-0.034,-0.021,-0.01,-1.579,0.035,-1.118,0,0
32.4,1,-0.017,-0.046,-0.03,-0.021,-0.037,-0.017,-1.578,0.038,-1.115,0,0
32.5,1,-0.007,-0.027,-0.013,-0.014,-0.037,-0.017,-1.576,0.04,-1.112,0,0
32.6,1,-0.002,0.005,-0.016,-0.006,-0.018,-0.016,-1.576,0.039,-1.109,0,0
32.7,1,-0.033,0.016,-0.004,-0.018,0.005,-0.014,-1.575,0.037,-1.106,0,0
32.81,1,-0.015,-0.029,0.011,-0.021,-0.007,-0.002,-1.576,0.042,-1.102,0,0
32.91,1,-0.026,-0.051,0.008,-0.016,-0.029,0.008,-1.578,0.048,-1.098,0,0
33,1,-0.031,-0.039,0.004,-0.031,-0.04,0.001,-1.581,0.054,-1.093,0,0
33.1,1,-0.004,-0.061,0.013,-0.021,-0.045,0.009,-1.582,0.059,-1.087,0,0
33.2,1,-0.011,-0.06,-0.014,-0.016,-0.056,0,-1.581,0.064,-1.083,0,0
33.3,1,0.009,-0.051,0.002,0,-0.056,0.001,-1.583,0.068,-1.078,0,0
33.41,1,0.007,-0.04,-0.017,0.003,-0.051,-0.007,-1.583,0.072,-1.073,0,0
33.5,1,-0.001,-0.019,-0.006,0.005,-0.034,-0.01,-1.582,0.075,-1.068,0,0
33.7,1,-0.043,-0.043,0.024,-0.031,-0.036,-0.006,-1.581,0.079,-1.059,0,0
33.8,1,-0.014,-0.054,0.007,-0.028,-0.042,0.012,-1.582,0.077,-1.054,0,0
33.91,1,0.013,-0.013,-0.008,-0.002,-0.033,0.003,-1.582,0.081,-1.049,0,0
34,1,-0.069,-0.012,-0.022,-0.028,-0.021,-0.01,-1.583,0.082,-1.046,0,0
34.1,1,-0.027,0.01,0.032,-0.042,-0.009,0.004,-1.585,0.078,-1.043,0,0
34.2,1,-0.021,0.051,-0.034,-0.023,0.02,0.002,-1.583,0.071,-1.041,0,0
34.3,1,-0.09,0.057,-0.037,-0.051,0.039,-0.029,-1.581,0.066,-1.039,0,0
34.4,1,-0.013,0.058,-0.008,-0.046,0.056,-0.021,-1.58,0.064,-1.036,0,0
34.5,1,-0.021,0.04,-0.047,-0.03,0.058,-0.034,-1.578,0.061,-1.034,0,0
34.61,1,-0.004,0.034,-0.04,-0.019,0.042,-0.036,-1.575,0.057,-1.032,0,0
34.7,1,0.016,0.035,-0.043,0.002,0.029,-0.036,-1.572,0.058,-1.031,0,0
34.8,1,-0.02,0.023,-0.052,-0.001,0.031,-0.047,-1.568,0.056,-1.029,0,0
34.9,1,-0.041,0.052,-0.038,-0.024,0.038,-0.046,-1.567,0.052,-1.029,0,0
35,1,-0.055,0.053,-0.033,-0.04,0.045,-0.038,-1.566,0.047,-1.028,0,0
35.1,1,-0.034,0.068,-0.016,-0.044,0.06,-0.027,-1.564,0.041,-1.027,0,0
35.2,1,-0.009,0.058,-0.01,-0.026,0.058,-0.016,-1.562,0.039,-1.025,0,0
35.31,1,-0.009,0.028,-0.031,-0.009,0.047,-0.022,-1.559,0.034,-1.024,0,0
35.41,1,-0.036,0,-0.037,-0.031,0.028,-0.034,-1.556,0.032,-1.023,0,0
35.51,1,-0.006,0.024,0.001,-0.014,0.017,-0.016,-1.555,0.03,-1.022,0,0
35.61,1,-0.009,0.05,-0.042,-0.016,0.033,-0.027,-1.551,0.027,-1.021,0,0
35.71,1,0.003,0.058,0.006,-0.006,0.047,-0.014,-1.551,0.024,-1.019,0,0
35.81,1,-0.035,0.016,-0.039,-0.012,0.036,-0.02,-1.548,0.021,-1.018,0,0
35.91,1,-0.03,-0.009,0.004,-0.03,0.016,-0.018,-1.547,0.021,-1.016,0,0
36.01,1,0.038,-0.039,-0.006,-0.001,-0.015,-0.003,-1.547,0.02,-1.014,0,0
36.11,1,0.003,-0.021,-0.006,0.012,-0.025,-0.01,-1.545,0.021,-1.011,0,0
36.21,1,-0.083,-0.021,-0.013,-0.026,-0.018,-0.004,-1.548,0.025,-1.009,0,0
36.32,1,-0.108,-0.027,0.046,-0.074,-0.023,0.009,-1.554,0.026,-1.005,0,0
36.41,1,-0.058,-0.058,0.071,-0.081,-0.035,0.042,-1.557,0.028,-1,0,0
36.51,1,-0.014,-0.064,0.029,-0.045,-0.062,0.044,-1.558,0.031,-0.996,0,0
36.61,1,0.044,-0.06,0.051,-0.001,-0.062,0.044,-1.561,0.037,-0.991,0,0
36.71,1,0.027,-0.022,0.003,0.024,-0.046,0.031,-1.561,0.038,-0.988,0,0
36.81,1,-0.04,-0.007,0.015,0,-0.026,0.014,-1.563,0.035,-0.985,0,0
36.91,1,-0.056,0.005,0.031,-0.039,0.001,0.022,-1.566,0.03,-0.983,0,0
37.02,1,-0.045,0.028,0.004,-0.044,0.012,0.019,-1.566,0.027,-0.981,0,0
37.11,1,-0.009,0.012,-0.002,-0.03,0.01,0.004,-1.564,0.025,-0.979,0,0
37.21,1,-0.009,0,-0.002,-0.013,0.011,0.004,-1.562,0.025,-0.977,0,0
37.31,1,0.009,0.021,0.007,-0.008,0.008,-0.002,-1.562,0.024,-0.975,0,0
37.41,1,-0.003,0.008,0.022,-0.001,0.012,0.014,-1.565,0.022,-0.973,0,0
37.52,1,-0.015,0.006,0.009,-0.003,0.006,0.013,-1.564,0.02,-0.971,0,0
37.61,1,0.017,0.02,0.024,-0.009,0.013,0.015,-1.565,0.02,-0.969,0,0
37.72,1,0.016,0.011,0.003,0.021,0.019,0.017,-1.566,0.017,-0.968,0,0
37.81,1,-0.018,-0.017,0.009,-0.002,-0.005,0.002,-1.567,0.017,-0.966,0,0
37.91,1,0,0.019,0.026,-0.004,0.007,0.022,-1.57,0.014,-0.964,0,0
38.01,1,-0.048,0.052,-0.01,-0.014,0.033,0.007,-1.571,0.009,-0.962,0,0
38.11,1,-0.058,0.003,0.027,-0.047,0.022,0.007,-1.573,0.01,-0.959,0,0
38.21,1,0.038,-0.016,0.044,-0.019,0.001,0.032,-1.574,0.012,-0.956,0,0
38.31,1,-0.006,-0.042,-0.008,0.007,-0.022,0.017,-1.572,0.016,-0.953,0,0
38.42,1,0.024,-0.025,0.044,0.005,-0.031,0.018,-1.573,0.021,-0.949,0,0
38.52,1,0.015,0.011,0.051,0.023,-0.009,0.04,-1.579,0.022,-0.947,0,0
38.62,1,-0.039,-0.019,0.039,-0.011,-0.009,0.041,-1.584,0.021,-0.944,0,0
38.72,1,-0.036,0.005,0.06,-0.027,-0.007,0.047,-1.59,0.021,-0.941,0,0
38.82,1,-0.02,-0.006,0.076,-0.026,0,0.064,-1.598,0.024,-0.937,0,0
38.92,1,0.001,-0.047,0.077,-0.016,-0.019,0.071,-1.604,0.031,-0.931,0,0
39.02,1,0.022,-0.053,0.043,0.002,-0.04,0.062,-1.611,0.043,-0.925,0,0
39.12,1,0.007,-0.049,0.043,0.017,-0.054,0.047,-1.614,0.049,-0.92,0,0
39.22,1,-0.048,-0.043,0.01,-0.02,-0.044,0.037,-1.617,0.05,-0.915,0,0
39.32,1,-0.043,0.048,0.017,-0.025,-0.013,0.019,-1.62,0.051,-0.911,0,0
39.42,1,-0.023,-0.027,0.057,-0.036,-0.001,0.038,-1.621,0.052,-0.906,0,0
39.52,1,-0.034,-0.025,0.015,-0.03,-0.014,0.033,-1.621,0.051,-0.902,0,0
39.62,1,-0.052,-0.037,0.006,-0.041,-0.028,0.012,-1.622,0.049,-0.899,0,0
39.72,1,0.013,-0.005,0.06,-0.023,-0.018,0.032,-1.623,0.046,-0.895,0,0
39.82,1,0.033,0.033,-0.003,0.011,0.006,0.024,-1.621,0.044,-0.892,0,0
39.92,1,-0.002,-0.008,0.021,0.01,0.005,0.018,-1.623,0.046,-0.887,0,0
40.02,1,-0.001,-0.02,0.019,-0.001,-0.002,0.021,-1.626,0.048,-0.883,0,0
40.13,1,-0.027,-0.008,0.019,-0.011,-0.011,0.019,-1.63,0.054,-0.879,0,0
40.22,1,-0.028,-0.024,0.001,-0.019,-0.02,0.008,-1.63,0.05,-0.876,0,0
40.32,1,-0.027,0.007,0.046,-0.024,-0.008,0.023,-1.634,0.045,-0.872,0,0
40.42,1,-0.014,-0.003,0.053,-0.024,-0.005,0.041,-1.64,0.043,-0.867,0,0
40.52,1,0.029,-0.009,0.051,0.001,-0.005,0.051,-1.646,0.044,-0.863,0,0
40.62,1,0.013,-0.004,0.042,0.016,-0.003,0.046,-1.65,0.044,-0.858,0,0
40.72,1,-0.017,-0.011,0.061,0.002,-0.005,0.048,-1.656,0.045,-0.854,0,0
40.83,1,-0.02,-0.022,0.055,-0.019,-0.016,0.055,-1.662,0.047,-0.849,0,0
40.93,1,0.024,-0.008,0.033,0.004,-0.016,0.05,-1.665,0.048,-0.845,0,0
41.02,1,-0.01,-0.005,0,0.008,-0.008,0.025,-1.666,0.047,-0.841,0,0
41.12,1,-0.066,0.011,0.004,-0.032,0.003,0.01,-1.668,0.045,-0.837,0,0
41.22,1,-0.022,0,0.026,-0.039,0.002,0.014,-1.671,0.043,-0.834,0,0
41.32,1,0.026,0.022,0.008,-0.007,0.005,0.02,-1.67,0.039,-0.831,0,0
41.42,1,-0.023,0.038,-0.051,0.002,0.022,-0.014,-1.667,0.035,-0.829,0,0
41.52,1,-0.077,0.016,-0.017,-0.035,0.03,-0.026,-1.665,0.033,-0.826,0,0
41.62,1,0.04,0.03,0.043,-0.014,0.027,0.006,-1.667,0.028,-0.824,0,0
41.72,1,0.024,0.06,-0.047,0.006,0.036,-0.008,-1.663,0.023,-0.824,0,0
41.83,1,-0.042,0.092,-0.05,-0.008,0.067,-0.032,-1.661,0.02,-0.825,0,0
41.93,1,-0.052,0.113,0.004,-0.032,0.093,-0.027,-1.66,0.009,-0.826,0,0
42.03,1,0.007,0.09,0.01,-0.025,0.095,0,-1.661,-0.001,-0.827,0,0
42.13,1,0.036,0.079,-0.011,0.007,0.089,-0.003,-1.658,-0.007,-0.828,0,0
42.22,1,-0.012,0.084,-0.029,0.013,0.084,-0.016,-1.655,-0.013,-0.828,0,0
42.33,1,-0.054,0.065,-0.012,-0.025,0.078,-0.019,-1.654,-0.017,-0.829,0,0
42.43,1,-0.013,0.038,-0.02,-0.023,0.059,-0.013,-1.654,-0.02,-0.829,0,0
42.53,1,0.053,0.056,-0.023,0.02,0.057,-0.018,-1.651,-0.022,-0.829,0,0
42.63,1,0.01,0.049,-0.04,0.003,0.051,-0.04,-1.647,-0.024,-0.83,0,0
42.73,1,0.022,0.01,-0.044,0.01,0.029,-0.031,-1.646,-0.025,-0.83,0,0
42.83,1,0.035,0.074,-0.049,0.047,0.055,-0.043,-1.646,-0.025,-0.83,0,0
42.93,1,-0.021,0.055,-0.027,0.003,0.055,-0.04,-1.647,-0.025,-0.83,0,0
43.04,1,-0.018,0.011,0.008,-0.011,0.033,-0.018,-1.648,-0.022,-0.829,0,0
43.13,1,0.019,-0.001,-0.025,-0.007,0.011,-0.014,-1.646,-0.02,-0.828,0,0
43.23,1,0.021,-0.007,-0.046,0.019,0.003,-0.03,-1.645,-0.022,-0.827,0,0
43.33,1,-0.029,-0.011,-0.008,-0.001,-0.009,-0.027,-1.644,-0.027,-0.826,0,0
43.43,1,-0.035,-0.011,0.018,-0.025,-0.007,-0.003,-1.645,-0.027,-0.826,0,0
43.53,1,-0.008,-0.012,0.013,-0.018,-0.01,0.012,-1.646,-0.024,-0.824,0,0
43.73,1,-0.012,-0.057,0.031,-0.012,-0.043,0.024,-1.651,-0.013,-0.818,0,0
43.83,1,-0.014,-0.056,0.009,-0.013,-0.053,0.021,-1.653,-0.005,-0.815,0,0
43.93,1,-0.019,-0.039,-0.002,-0.016,-0.043,0.007,-1.653,0,-0.813,0,0
44.03,1,-0.014,-0.044,0.019,-0.017,-0.045,0.008,-1.653,0.004,-0.81,0,0
44.14,1,0.002,-0.027,0.021,-0.011,-0.035,0.017,-1.652,0.008,-0.808,0,0
44.23,1,-0.013,-0.058,-0.008,-0.006,-0.038,0.01,-1.652,0.01,-0.805,0,0
44.34,1,-0.031,-0.007,0.006,-0.011,-0.035,-0.001,-1.652,0.013,-0.803,0,0
44.44,1,-0.013,0.018,0.039,-0.022,-0.008,0.019,-1.652,0.013,-0.801,0,0
44.54,1,-0.042,0.017,-0.017,-0.028,0.008,0.013,-1.649,0.012,-0.799,0,0
44.63,1,-0.031,0,0,-0.032,0.004,-0.004,-1.648,0.013,-0.797,0,0
44.73,1,-0.018,-0.025,0.003,-0.026,-0.003,0.003,-1.65,0.018,-0.795,0,0
44.84,1,-0.026,-0.064,-0.015,-0.026,-0.031,-0.01,-1.651,0.023,-0.791,0,0
44.93,1,-0.001,-0.045,0.025,-0.019,-0.048,0.007,-1.653,0.026,-0.787,0,0
45.03,1,0.014,-0.046,-0.024,0.002,-0.046,-0.001,-1.651,0.027,-0.783,0,0
45.13,1,-0.008,-0.03,-0.025,0.002,-0.044,-0.016,-1.647,0.03,-0.78,0,0
45.23,1,-0.031,-0.016,-0.013,-0.012,-0.026,-0.019,-1.646,0.033,-0.777,0,0
45.33,1,0.004,-0.03,-0.013,-0.012,-0.023,-0.013,-1.644,0.036,-0.773,0,0
45.44,1,-0.05,-0.024,-0.029,-0.027,-0.022,-0.017,-1.644,0.039,-0.77,0,0
45.54,1,0.032,-0.019,-0.025,-0.004,-0.028,-0.024,-1.642,0.041,-0.766,0,0
45.64,1,0.009,0.025,-0.033,0.008,-0.006,-0.032,-1.639,0.041,-0.764,0,0
45.74,1,0.005,0.026,-0.015,0.005,0.015,-0.023,-1.637,0.039,-0.763,0,0
45.84,1,-0.012,0.042,-0.024,0.003,0.028,-0.022,-1.636,0.034,-0.761,0,0
45.94,1,-0.039,0.029,-0.025,-0.018,0.029,-0.028,-1.633,0.029,-0.759,0,0
46.04,1,-0.048,0.022,-0.008,-0.036,0.03,-0.017,-1.631,0.028,-0.758,0,0
46.14,1,-0.022,0.019,0.004,-0.037,0.024,-0.004,-1.632,0.028,-0.756,0,0
46.24,1,0.017,0.017,0.02,-0.012,0.02,0.004,-1.633,0.028,-0.754,0,0
46.34,1,0.011,0.032,-0.004,0.006,0.022,0.011,-1.632,0.024,-0.753,0,0
46.44,1,-0.024,0.069,0.003,-0.001,0.042,0.003,-1.633,0.018,-0.753,0,0
46.54,1,-0.025,0.081,0.035,-0.022,0.066,0.011,-1.635,0.01,-0.754,0,0
46.64,1,0.005,0.066,0.033,-0.015,0.069,0.032,-1.639,0.005,-0.754,0,0
46.74,1,0.03,0.047,0.034,0.01,0.061,0.028,-1.641,0.003,-0.754,0,0
46.86,1,-0.026,0.054,0.053,0.01,0.055,0.041,-1.643,-0.001,-0.754,0,0
46.95,1,-0.035,0.019,0.02,-0.022,0.041,0.036,-1.644,-0.002,-0.753,0,0
47.04,1,-0.009,0.003,0.032,-0.022,0.02,0.031,-1.646,-0.002,-0.752,0,0
47.14,1,0.001,-0.011,-0.031,-0.009,0.004,0.008,-1.644,-0.001,-0.75,0,0
47.24,1,-0.027,-0.004,0.028,-0.012,-0.006,0.002,-1.644,0.001,-0.749,0,0
47.35,1,-0.051,0.001,-0.002,-0.039,0,0.005,-1.645,0.003,-0.747,0,0
47.45,1,-0.021,-0.026,0.015,-0.033,-0.009,0.015,-1.646,0.007,-0.744,0,0
47.54,1,-0.008,-0.043,-0.025,-0.015,-0.027,-0.005,-1.644,0.012,-0.741,0,0
47.64,1,0.004,-0.034,-0.001,-0.008,-0.032,-0.009,-1.643,0.016,-0.738,0,0
47.74,1,0.02,-0.037,0.011,0.011,-0.034,0.001,-1.645,0.017,-0.735,0,0
47.84,1,0.007,-0.052,-0.027,0.011,-0.043,-0.009,-1.644,0.023,-0.732,0,0
47.94,1,-0.006,-0.05,0.018,0.002,-0.045,-0.003,-1.644,0.027,-0.73,0,0
48.05,1,-0.024,-0.012,-0.047,-0.014,-0.037,-0.013,-1.64,0.025,-0.727,0,0
48.14,1,0.011,-0.022,-0.072,-0.007,-0.026,-0.045,-1.632,0.025,-0.725,0,0
48.24,1,-0.022,-0.006,-0.127,-0.004,-0.012,-0.084,-1.621,0.025,-0.723,0,0
48.34,1,-0.043,-0.014,-0.081,-0.027,-0.013,-0.094,-1.612,0.026,-0.72,0,0
48.44,1,-0.006,-0.044,-0.06,-0.022,-0.026,-0.077,-1.606,0.029,-0.717,0,0
48.54,1,0.035,-0.028,-0.082,0.004,-0.03,-0.076,-1.598,0.029,-0.715,0,0
48.66,1,0.01,-0.021,-0.063,0.019,-0.03,-0.072,-1.593,0.029,-0.713,0,0
48.75,1,-0.023,0.002,-0.066,-0.002,-0.015,-0.067,-1.586,0.03,-0.711,0,0
48.85,1,-0.05,-0.01,-0.057,-0.028,-0.008,-0.062,-1.58,0.03,-0.708,0,0
48.95,1,-0.036,-0.029,-0.042,-0.038,-0.018,-0.054,-1.576,0.032,-0.705,0,0
49.05,1,0.004,-0.013,-0.041,-0.021,-0.02,-0.041,-1.575,0.032,-0.703,0,0
49.15,1,0.002,-0.018,-0.106,-0.006,-0.015,-0.072,-1.567,0.032,-0.701,0,0
49.25,1,0.016,-0.011,-0.063,0.005,-0.015,-0.075,-1.559,0.03,-0.699,0,0
49.36,1,0.035,0.003,-0.017,0.016,-0.011,-0.049,-1.555,0.028,-0.697,0,0
49.45,1,-0.043,0.007,-0.024,0.001,0.005,-0.035,-1.555,0.028,-0.695,0,0
49.55,1,-0.079,0.011,-0.023,-0.044,0.005,-0.027,-1.556,0.028,-0.692,0,0
49.65,1,-0.004,0.001,0.036,-0.03,0.006,0.001,-1.558,0.027,-0.69,0,0
49.75,1,0.025,-0.015,0.002,0.001,-0.001,0.016,-1.557,0.026,-0.688,0,0
49.85,1,0.025,-0.007,0.065,0.012,-0.006,0.029,-1.556,0.026,-0.686,0,0
49.95,1,-0.012,-0.002,0.046,0.011,-0.004,0.043,-1.557,0.027,-0.684,0,0
50.05,1,-0.049,-0.011,0.043,-0.022,-0.006,0.045,-1.558,0.028,-0.681,0,0
50.15,1,-0.045,0.01,0.039,-0.044,-0.003,0.042,-1.562,0.029,-0.679,0,0
50.25,1,-0.014,0.016,0.062,-0.033,0.007,0.049,-1.566,0.032,-0.677,0,0
50.35,1,0.033,-0.025,0.021,-0.002,-0.006,0.043,-1.568,0.039,-0.674,0,0
50.45,1,0.002,-0.008,-0.004,0.014,-0.009,0.015,-1.569,0.045,-0.67,0,0
50.56,1,0.018,-0.024,0.03,0.009,-0.016,0.015,-1.571,0.049,-0.667,0,0
50.65,1,-0.012,-0.019,-0.002,0.006,-0.021,0.016,-1.572,0.051,-0.665,0,0
50.75,1,-0.046,-0.005,0.006,-0.028,-0.016,0.003,-1.571,0.051,-0.662,0,0
50.85,1,-0.036,0.01,-0.019,-0.034,0.003,-0.002,-1.57,0.05,-0.659,0,0
50.95,1,-0.027,0.001,0.014,-0.03,0.003,-0.003,-1.57,0.05,-0.657,0,0
51.06,1,-0.013,-0.017,-0.01,-0.025,-0.01,-0.001,-1.568,0.054,-0.653,0,0
51.16,1,-0.006,-0.031,-0.023,-0.012,-0.018,-0.005,-1.563,0.057,-0.65,0,0
51.26,1,0.003,-0.017,-0.048,-0.001,-0.024,-0.031,-1.56,0.059,-0.648,0,0
51.35,1,-0.04,0.016,-0.021,-0.017,-0.004,-0.034,-1.558,0.059,-0.646,0,0
51.45,1,-0.022,0.028,-0.024,-0.024,0.015,-0.024,-1.558,0.054,-0.645,0,0
51.55,1,0.011,0.012,-0.003,-0.015,0.017,-0.016,-1.557,0.052,-0.643,0,0
51.65,1,0.058,0.012,-0.049,0.024,0.013,-0.022,-1.553,0.053,-0.641,0,0
51.76,1,-0.036,0.015,-0.041,0.011,0.014,-0.039,-1.548,0.054,-0.639,0,0
51.85,1,-0.04,0.035,-0.032,-0.027,0.022,-0.039,-1.548,0.052,-0.638,0,0
51.96,1,-0.024,0.041,-0.01,-0.027,0.031,-0.023,-1.545,0.049,-0.636,0,0
52.06,1,0.017,0.056,-0.033,-0.006,0.047,-0.023,-1.542,0.047,-0.635,0,0
52.16,1,0.026,0.037,-0.015,0.008,0.044,-0.023,-1.538,0.047,-0.634,0,0
52.26,1,0.039,0.014,-0.022,0.029,0.03,-0.018,-1.536,0.049,-0.632,0,0
52.36,1,-0.013,0.02,-0.049,0.016,0.02,-0.036,-1.531,0.048,-0.631,0,0
52.46,1,-0.059,0.021,-0.007,-0.025,0.023,-0.023,-1.529,0.05,-0.629,0,0
52.56,1,-0.03,0.021,0.006,-0.036,0.02,-0.008,-1.529,0.053,-0.627,0,0
52.66,1,0.011,-0.001,-0.009,-0.012,0.01,-0.007,-1.527,0.054,-0.626,0,0
52.76,1,-0.014,0.039,-0.043,-0.004,0.021,-0.023,-1.524,0.051,-0.625,0,0
52.86,1,-0.048,0.07,0.005,-0.024,0.045,-0.016,-1.524,0.047,-0.625,0,0
52.97,1,0.009,0.052,0.013,-0.023,0.055,0.003,-1.524,0.044,-0.625,0,0
53.06,1,0.02,0.045,-0.003,0.004,0.052,0,-1.522,0.043,-0.624,0,0
53.16,1,0.004,0.019,0.006,0.007,0.034,0.003,-1.523,0.045,-0.623,0,0
53.26,1,0.017,-0.007,0.01,0.012,0.012,0.01,-1.525,0.047,-0.622,0,0
53.36,1,-0.021,0.046,-0.009,-0.004,0.024,-0.001,-1.525,0.045,-0.622,0,0
53.46,1,-0.055,0.066,0.033,-0.029,0.044,0.009,-1.527,0.045,-0.623,0,0
53.67,1,0.019,0.041,0.02,-0.013,0.045,0.033,-1.529,0.037,-0.624,0,0
53.76,1,0.026,0.031,0.033,0.015,0.037,0.029,-1.529,0.035,-0.624,0,0
53.86,1,-0.022,0.037,0.03,-0.004,0.035,0.023,-1.53,0.034,-0.625,0,0
53.96,1,-0.032,0.037,0.045,-0.023,0.036,0.043,-1.535,0.031,-0.625,0,0
54.06,1,-0.004,0.027,0.04,-0.014,0.033,0.042,-1.538,0.03,-0.625,0,0
54.16,1,-0.003,0.015,0.027,-0.007,0.024,0.032,-1.539,0.031,-0.624,0,0
54.26,1,0.013,-0.001,0.039,0.004,0.012,0.035,-1.543,0.035,-0.623,0,0
54.36,1,0,-0.007,0.013,0.002,0.002,0.025,-1.545,0.039,-0.622,0,0
54.46,1,0.009,0.014,0.051,0.002,0.005,0.032,-1.548,0.043,-0.622,0,0
54.57,1,0.016,-0.001,0.046,0.015,0.005,0.045,-1.55,0.043,-0.622,0,0
54.66,1,-0.013,0.009,0.009,0.002,0.002,0.03,-1.552,0.041,-0.622,0,0
54.77,1,-0.009,0.021,0.036,-0.002,0.011,0.029,-1.556,0.041,-0.622,0,0
54.86,1,-0.003,0.041,0.058,-0.009,0.027,0.041,-1.561,0.041,-0.621,0,0
54.96,1,0.047,-0.017,0.038,0.019,0.017,0.047,-1.565,0.042,-0.621,0,0
55.06,1,-0.008,-0.021,-0.009,0.015,-0.006,0.015,-1.564,0.05,-0.621,0,0
55.17,1,-0.037,0.036,0.048,-0.023,0.006,0.023,-1.565,0.056,-0.621,0,0
55.27,1,0.039,0.029,0.018,0.007,0.016,0.035,-1.563,0.056,-0.621,0,0
55.37,1,-0.017,0.025,0.009,0.004,0.025,0.016,-1.563,0.057,-0.621,0,0
55.47,1,0.012,-0.007,0.003,0.001,0.013,0.008,-1.566,0.057,-0.621,0,0
55.57,1,0.022,0.006,0.003,0.011,0.005,0.008,-1.568,0.058,-0.621,0,0
55.67,1,-0.031,0.032,-0.006,0,0.015,0.003,-1.567,0.056,-0.622,0,0
55.77,1,-0.009,0.064,0.031,-0.011,0.04,0.005,-1.567,0.051,-0.622,0,0
55.87,1,0.037,0.033,0.009,0.011,0.039,0.015,-1.568,0.052,-0.623,0,0
55.98,1,-0.027,0.057,-0.025,-0.001,0.05,-0.002,-1.568,0.049,-0.625,0,0
56.08,1,-0.03,0.054,-0.003,-0.018,0.051,-0.007,-1.566,0.044,-0.627,0,0
56.17,1,0.027,0.038,0.014,-0.007,0.047,-0.003,-1.566,0.042,-0.63,0,0
56.27,1,-0.034,0.082,-0.021,-0.012,0.067,0.001,-1.565,0.041,-0.633,0,0
56.37,1,-0.028,0.081,-0.006,-0.016,0.073,-0.009,-1.564,0.041,-0.635,0,0
56.47,1,0.026,0.027,0,-0.005,0.053,-0.006,-1.563,0.039,-0.637,0,0
56.57,1,0.015,-0.002,-0.024,0.013,0.028,-0.011,-1.562,0.04,-0.639,0,0
56.67,1,-0.052,0.013,-0.021,-0.015,0.012,-0.017,-1.563,0.041,-0.64,0,0
56.78,1,-0.026,0.016,-0.017,-0.033,0.018,-0.021,-1.562,0.038,-0.642,0,0
56.87,1,0.022,0.041,-0.027,-0.01,0.023,-0.017,-1.56,0.036,-0.644,0,0
56.98,1,0.005,0.002,-0.018,0.011,0.013,-0.022,-1.555,0.036,-0.645,0,0
57.07,1,-0.001,0.016,-0.024,-0.001,0.01,-0.026,-1.551,0.036,-0.646,0,0
57.18,1,-0.058,-0.026,-0.022,-0.024,0.007,-0.02,-1.546,0.042,-0.652,0,0
57.29,1,0.002,-0.008,-0.021,-0.018,-0.012,-0.02,-1.544,0.052,-0.655,0,0
57.37,1,0.009,0.004,-0.027,0.005,-0.001,-0.027,-1.542,0.05,-0.65,0,0
57.47,1,-0.016,0.008,-0.012,-0.009,0.005,-0.023,-1.542,0.049,-0.648,0,0
57.57,1,0,-0.017,-0.02,-0.006,-0.006,-0.016,-1.541,0.05,-0.648,0,0
57.68,1,-0.016,-0.005,-0.03,-0.008,-0.009,-0.021,-1.539,0.051,-0.649,0,0
57.77,1,-0.019,0.019,-0.021,-0.017,0.004,-0.027,-1.537,0.05,-0.65,0,0
57.88,1,0.007,0.026,-0.02,-0.008,0.017,-0.018,-1.535,0.049,-0.651,0,0
57.97,1,-0.008,0.029,-0.038,-0.002,0.021,-0.026,-1.531,0.046,-0.653,0,0
58.07,1,-0.006,0.049,-0.024,-0.008,0.035,-0.032,-1.529,0.04,-0.654,0,0
58.18,1,-0.009,0.02,-0.005,-0.01,0.033,-0.018,-1.528,0.039,-0.656,0,0
58.27,1,-0.006,0.014,-0.026,-0.007,0.021,-0.017,-1.525,0.04,-0.657,0,0
58.37,1,-0.005,0.01,-0.006,-0.01,0.019,-0.017,-1.524,0.04,-0.659,0,0
58.49,1,0.026,-0.004,0.001,0.003,0.002,-0.009,-1.524,0.04,-0.66,0,0
58.57,1,0.01,0.006,-0.043,0.014,0.005,-0.017,-1.521,0.04,-0.662,0,0
58.68,1,-0.006,0.011,0.01,0.018,0.008,-0.011,-1.521,0.042,-0.663,0,0
58.78,1,-0.025,0.004,-0.005,-0.009,0.006,-0.006,-1.521,0.042,-0.664,0,0
58.88,1,-0.026,0,-0.024,-0.019,0.007,-0.013,-1.522,0.041,-0.664,0,0
58.98,1,-0.037,0.027,-0.014,-0.023,0.012,-0.012,-1.524,0.039,-0.665,0,0
59.08,1,-0.012,0.004,0.007,-0.034,0.011,-0.009,-1.525,0.036,-0.666,0,0
59.18,1,0.038,-0.006,-0.006,-0.002,0.001,-0.005,-1.523,0.035,-0.667,0,0
59.28,1,-0.015,-0.01,-0.041,0.012,-0.002,-0.017,-1.521,0.036,-0.668,0,0
59.38,1,0.024,-0.002,0.047,0.006,-0.007,-0.001,-1.523,0.037,-0.668,0,0
59.48,1,0.058,-0.01,-0.012,0.031,-0.005,0.008,-1.523,0.039,-0.669,0,0
59.58,1,0.005,0.009,-0.006,0.032,-0.004,0.002,-1.522,0.045,-0.67,0,0
59.68,1,-0.045,0.007,-0.021,-0.009,0.007,-0.014,-1.521,0.046,-0.671,0,0
59.78,1,-0.056,0.028,0.01,-0.046,0.017,-0.003,-1.522,0.047,-0.672,0,0
59.88,1,0.017,0.009,-0.009,-0.017,0.011,-0.002,-1.521,0.05,-0.673,0,0
59.98,1,0.008,0.003,-0.022,0.011,0.007,-0.014,-1.52,0.049,-0.673,0,0
60.08,1,-0.028,0.02,0.02,-0.012,0.013,-0.004,-1.521,0.05,-0.674,0,0
60.18,1,-0.017,0.025,-0.005,-0.022,0.02,0.007,-1.52,0.05,-0.675,0,0
60.29,1,0.002,-0.007,-0.01,-0.006,0.012,-0.005,-1.516,0.051,-0.676,0,0
60.39,1,-0.053,0.013,-0.018,-0.028,0.005,-0.016,-1.516,0.053,-0.677,0,0
60.48,1,-0.059,0.001,-0.002,-0.045,0.003,-0.006,-1.519,0.052,-0.678,0,0
60.58,1,-0.04,0.017,-0.005,-0.042,0.015,-0.001,-1.519,0.048,-0.679,0,0
60.68,1,0.022,0.023,0.036,-0.037,0.016,0.005,-1.518,0.045,-0.681,0,0
60.78,1,0.089,0.031,0.048,0.035,0.022,0.033,-1.514,0.045,-0.682,0,0
60.88,1,0.121,0.049,0.003,0.099,0.032,0.031,-1.51,0.045,-0.684,0,0
60.98,1,-0.04,0.07,0.027,0.045,0.053,0.016,-1.509,0.044,-0.686,0,0
61.08,1,-0.069,0.059,0.045,-0.028,0.063,0.03,-1.513,0.039,-0.687,0,0
61.18,1,-0.093,0.019,0.035,-0.064,0.046,0.041,-1.52,0.037,-0.688,0,0
61.28,1,-0.033,0.004,0.041,-0.055,0.022,0.036,-1.523,0.035,-0.689,0,0
61.39,1,0.014,0.026,0.041,-0.021,0.016,0.035,-1.528,0.034,-0.69,0,0
61.48,1,-0.007,0.021,0.057,-0.003,0.024,0.049,-1.533,0.031,-0.692,0,0
61.58,1,-0.054,0.008,0.047,-0.025,0.015,0.049,-1.536,0.027,-0.693,0,0
61.68,1,-0.055,-0.011,0.051,-0.048,0.001,0.051,-1.54,0.025,-0.694,0,0
61.78,1,-0.017,0.034,0.045,-0.038,0.011,0.047,-1.545,0.024,-0.695,0,0
61.88,1,0.008,0.04,0.04,-0.011,0.026,0.046,-1.549,0.021,-0.697,0,0
61.99,1,0,0.02,0.033,-0.003,0.026,0.037,-1.552,0.018,-0.698,0,0
62.09,1,-0.016,0.018,0.044,-0.009,0.026,0.039,-1.557,0.019,-0.7,0,0
62.19,1,-0.063,0.05,0.038,-0.029,0.032,0.04,-1.561,0.023,-0.702,0,0
62.29,1,-0.059,0.011,0.026,-0.05,0.027,0.033,-1.562,0.025,-0.703,0,0
62.39,1,-0.009,0.01,0.017,-0.037,0.016,0.026,-1.566,0.025,-0.705,0,0
62.49,1,-0.032,0.025,0.02,-0.024,0.017,0.023,-1.569,0.025,-0.706,0,0
62.59,1,-0.04,0.008,0.032,-0.036,0.015,0.024,-1.571,0.024,-0.708,0,0
62.69,1,-0.049,0.023,0.018,-0.043,0.02,0.023,-1.572,0.018,-0.71,0,0
62.8,1,-0.012,0.025,0.028,-0.034,0.021,0.025,-1.575,0.018,-0.711,0,0
62.89,1,-0.029,0.012,0.015,-0.026,0.018,0.023,-1.577,0.019,-0.713,0,0
62.99,1,-0.001,0.001,0.017,-0.019,0.014,0.017,-1.58,0.021,-0.714,0,0
63.09,1,-0.025,-0.006,0.027,-0.015,-0.001,0.021,-1.583,0.024,-0.715,0,0
63.19,1,-0.033,0.004,0.026,-0.026,0,0.021,-1.586,0.024,-0.716,0,0
63.29,1,-0.019,0.019,0.026,-0.029,0.013,0.025,-1.588,0.021,-0.718,0,0
63.4,1,-0.017,0.034,0.016,-0.012,0.019,0.024,-1.59,0.017,-0.719,0,0
63.49,1,-0.031,-0.028,0.024,-0.023,0.004,0.022,-1.592,0.015,-0.72,0,0
63.69,1,0.005,-0.03,0.003,0.005,-0.028,0.015,-1.592,0.021,-0.721,0,0
63.79,1,-0.022,-0.022,-0.007,-0.005,-0.029,0,-1.593,0.023,-0.721,0,0
63.89,1,-0.026,-0.011,0.019,-0.017,-0.019,0.007,-1.595,0.025,-0.722,0,0
64,1,-0.022,-0.001,0.026,-0.024,-0.008,0.015,-1.595,0.022,-0.723,0,0
64.09,1,-0.015,0.001,0.039,-0.017,-0.004,0.028,-1.596,0.021,-0.724,0,0
64.19,1,0.004,-0.039,0.022,-0.005,-0.019,0.027,-1.596,0.022,-0.724,0,0
64.29,1,0.019,-0.012,0.022,0.003,-0.019,0.024,-1.6,0.025,-0.725,0,0
64.4,1,0.003,-0.021,0.037,0.009,-0.017,0.03,-1.605,0.025,-0.725,0,0
64.49,1,-0.039,-0.045,0.055,-0.008,-0.026,0.043,-1.61,0.027,-0.724,0,0
64.6,1,-0.025,-0.04,0.011,-0.027,-0.039,0.034,-1.611,0.03,-0.724,0,0
64.69,1,-0.008,-0.035,0.014,-0.02,-0.038,0.019,-1.613,0.033,-0.723,0,0
64.79,1,0.015,-0.023,0.032,-0.005,-0.034,0.024,-1.613,0.034,-0.724,0,0
64.89,1,0.013,-0.016,-0.002,0.011,-0.024,0.015,-1.614,0.035,-0.724,0,0
65,1,-0.03,0.006,0,-0.011,-0.008,0.005,-1.615,0.032,-0.725,0,0
65.09,1,-0.032,0.022,0.006,-0.019,0.006,0.005,-1.616,0.03,-0.726,0,0
65.2,1,-0.014,0.014,-0.013,-0.019,0.015,-0.002,-1.615,0.028,-0.727,0,0
65.29,1,-0.002,0.008,-0.012,-0.016,0.014,-0.01,-1.611,0.026,-0.729,0,0
65.4,1,0.016,-0.005,-0.053,0,0.003,-0.024,-1.608,0.024,-0.73,0,0
65.5,1,0.024,0.009,-0.058,0.015,0.002,-0.048,-1.604,0.022,-0.731,0,0
65.6,1,-0.019,-0.006,-0.065,0.003,0.002,-0.057,-1.598,0.02,-0.732,0,0
65.7,1,-0.02,0.006,-0.053,-0.008,-0.001,-0.055,-1.592,0.023,-0.732,0,0
65.8,1,-0.024,-0.017,-0.059,-0.02,-0.003,-0.059,-1.585,0.025,-0.733,0,0
65.9,1,-0.037,-0.009,-0.054,-0.025,-0.013,-0.054,-1.58,0.025,-0.734,0,0
66,1,-0.013,0.014,-0.035,-0.027,-0.002,-0.051,-1.577,0.026,-0.736,0,0
66.1,1,-0.005,0.011,-0.063,-0.016,0.01,-0.05,-1.574,0.026,-0.737,0,0
66.2,1,-0.025,0.016,-0.042,-0.012,0.012,-0.05,-1.571,0.025,-0.738,0,0
66.3,1,-0.004,0.012,-0.035,-0.012,0.015,-0.042,-1.568,0.022,-0.74,0,0
66.4,1,0.001,0.015,-0.029,-0.008,0.013,-0.035,-1.564,0.02,-0.741,0,0
66.5,1,0.015,0.026,-0.036,0.008,0.018,-0.033,-1.561,0.017,-0.743,0,0
66.6,1,-0.031,0.023,-0.033,-0.006,0.024,-0.035,-1.559,0.014,-0.744,0,0
66.7,1,-0.039,0.037,-0.028,-0.029,0.031,-0.032,-1.557,0.009,-0.746,0,0
66.8,1,-0.028,0.051,-0.015,-0.03,0.038,-0.022,-1.556,0.006,-0.749,0,0
66.9,1,0.013,0.042,-0.004,-0.011,0.042,-0.013,-1.556,0.004,-0.751,0,0
67,1,0.026,0.031,0.005,0.011,0.039,-0.006,-1.555,0,-0.754,0,0
67.1,1,-0.002,0.057,0.008,0.01,0.045,0.002,-1.554,-0.005,-0.757,0,0
67.2,1,-0.003,0.036,0.022,-0.001,0.043,0.009,-1.555,-0.009,-0.76,0,0
67.31,1,0.004,0.043,0.021,0.003,0.04,0.019,-1.557,-0.012,-0.763,0,0
67.4,1,0.004,0.023,0.021,0,0.034,0.02,-1.558,-0.015,-0.765,0,0
67.5,1,-0.021,0.024,0.018,-0.006,0.033,0.019,-1.56,-0.018,-0.768,0,0
67.6,1,-0.014,0.013,0.036,-0.014,0.019,0.025,-1.562,-0.022,-0.771,0,0
67.7,1,-0.016,0,0.029,-0.011,0.01,0.033,-1.566,-0.022,-0.773,0,0
67.8,1,-0.037,-0.001,0.022,-0.025,0.003,0.024,-1.568,-0.021,-0.775,0,0
67.9,1,-0.016,0.014,0.034,-0.021,0.006,0.029,-1.57,-0.021,-0.776,0,0
68,1,-0.048,-0.013,0.037,-0.033,0,0.034,-1.573,-0.02,-0.778,0,0
68.1,1,0.004,0.002,0.041,-0.024,-0.004,0.037,-1.576,-0.02,-0.78,0,0
68.21,1,0.017,0.003,0.034,0.003,0.001,0.036,-1.581,-0.021,-0.782,0,0
68.31,1,0.029,-0.001,0.03,0.013,-0.001,0.033,-1.583,-0.024,-0.784,0,0
68.4,1,0.01,0.029,0.049,0.021,0.016,0.04,-1.586,-0.027,-0.787,0,0
68.5,1,0.008,-0.013,0.063,0.011,0.006,0.05,-1.592,-0.024,-0.788,0,0
68.6,1,-0.022,-0.002,0.045,-0.003,-0.004,0.052,-1.596,-0.022,-0.79,0,0
68.71,1,-0.022,-0.001,0.045,-0.017,-0.001,0.046,-1.598,-0.023,-0.792,0,0
68.81,1,0.005,-0.008,0.024,-0.009,-0.005,0.038,-1.599,-0.024,-0.794,0,0
68.91,1,-0.007,0.006,0.007,-0.003,-0.001,0.023,-1.601,-0.024,-0.797,0,0
69.01,1,-0.033,0,0.012,-0.017,0.001,0.014,-1.601,-0.026,-0.798,0,0
69.11,1,-0.03,0.004,0.012,-0.027,0.002,0.015,-1.603,-0.027,-0.8,0,0
69.21,1,-0.016,-0.016,0.006,-0.023,-0.001,0.011,-1.604,-0.023,-0.801,0,0
69.32,1,-0.053,-0.07,-0.014,-0.033,-0.035,-0.001,-1.605,-0.018,-0.801,0,0
69.41,1,-0.028,-0.063,0.006,-0.036,-0.055,-0.006,-1.607,-0.013,-0.801,0,0
69.51,1,0.003,-0.051,0.01,-0.021,-0.056,0.008,-1.606,-0.011,-0.801,0,0
69.61,1,0.004,-0.06,-0.019,-0.004,-0.055,-0.003,-1.606,-0.008,-0.801,0,0
69.71,1,-0.004,-0.052,-0.028,0,-0.053,-0.018,-1.605,-0.003,-0.8,0,0
69.81,1,0.014,-0.087,-0.043,0.005,-0.067,-0.03,-1.601,0.005,-0.798,0,0
69.92,1,-0.011,-0.083,-0.056,-0.006,-0.077,-0.046,-1.596,0.011,-0.797,0,0
70.01,1,-0.047,-0.093,-0.061,-0.015,-0.086,-0.05,-1.59,0.014,-0.795,0,0
70.11,1,-0.022,-0.068,-0.062,-0.031,-0.082,-0.062,-1.583,0.019,-0.794,0,0
70.21,1,0.015,-0.034,-0.066,-0.013,-0.06,-0.06,-1.574,0.022,-0.793,0,0
70.31,1,0.023,-0.038,-0.053,0.011,-0.044,-0.061,-1.568,0.027,-0.793,0,0
70.41,1,-0.023,-0.012,-0.068,-0.006,-0.037,-0.066,-1.563,0.03,-0.792,0,0
70.52,1,-0.019,-0.057,-0.046,-0.007,-0.031,-0.054,-1.56,0.03,-0.791,0,0
70.61,1,-0.019,-0.018,-0.064,-0.01,-0.033,-0.053,-1.555,0.03,-0.79,0,0
70.71,1,-0.062,-0.045,-0.055,-0.041,-0.03,-0.064,-1.554,0.033,-0.789,0,0
70.81,1,0.015,-0.044,-0.029,-0.026,-0.043,-0.045,-1.552,0.038,-0.788,0,0
70.91,1,0,-0.029,-0.036,0.002,-0.036,-0.036,-1.548,0.041,-0.787,0,0
71.01,1,-0.039,-0.038,-0.061,-0.027,-0.037,-0.052,-1.545,0.043,-0.785,0,0
71.12,1,-0.007,-0.012,0.012,-0.022,-0.027,-0.022,-1.546,0.046,-0.784,0,0
71.22,1,0.108,-0.035,-0.034,0.044,-0.023,-0.016,-1.544,0.053,-0.783,0,0
71.31,1,0.051,-0.034,-0.057,0.071,-0.034,-0.039,-1.539,0.059,-0.782,0,0
71.41,1,-0.093,0.042,-0.075,-0.004,-0.004,-0.064,-1.534,0.057,-0.782,0,0
71.51,1,-0.053,0.001,-0.005,-0.051,0.013,-0.036,-1.535,0.059,-0.78,0,0
71.61,1,-0.017,-0.027,-0.024,-0.039,-0.005,-0.028,-1.534,0.061,-0.78,0,0
71.71,1,-0.024,-0.013,-0.034,-0.032,-0.015,-0.029,-1.531,0.059,-0.78,0,0
71.82,1,0.034,0.026,-0.02,-0.003,-0.001,-0.024,-1.529,0.055,-0.78,0,0
71.92,1,-0.017,0.034,-0.026,0.007,0.021,-0.022,-1.527,0.052,-0.781,0,0
72.02,1,-0.035,0.02,-0.005,-0.016,0.021,-0.02,-1.527,0.05,-0.78,0,0
72.11,1,-0.02,0,-0.017,-0.025,0.017,-0.014,-1.525,0.049,-0.78,0,0
72.22,1,-0.051,0.001,-0.015,-0.032,0,-0.015,-1.522,0.048,-0.78,0,0
72.33,1,0.025,0.038,0.002,-0.017,0.016,-0.01,-1.521,0.045,-0.78,0,0
72.42,1,0.025,0.051,-0.019,0.014,0.038,-0.008,-1.52,0.04,-0.781,0,0
72.53,1,0.021,0.048,-0.021,0.013,0.046,-0.018,-1.517,0.038,-0.782,0,0
72.62,1,-0.012,0.042,-0.031,0.01,0.044,-0.023,-1.516,0.035,-0.783,0,0
72.72,1,-0.074,0.023,0,-0.027,0.034,-0.015,-1.516,0.03,-0.784,0,0
72.82,1,-0.038,0.036,0.006,-0.048,0.032,-0.004,-1.518,0.026,-0.785,0,0
72.92,1,0.046,0.026,-0.018,-0.005,0.029,-0.005,-1.518,0.021,-0.786,0,0
73.02,1,-0.001,0.034,-0.022,0.006,0.032,-0.017,-1.517,0.019,-0.787,0,0
73.13,1,-0.04,0.014,-0.006,-0.014,0.027,-0.017,-1.516,0.017,-0.788,0,0
73.22,1,0.022,0.027,0.007,-0.006,0.021,-0.002,-1.517,0.016,-0.788,0,0
73.32,1,0.026,0.004,-0.004,0.02,0.019,0.002,-1.513,0.017,-0.789,0,0
73.42,1,0.04,-0.007,0.008,0.027,0.007,0,-1.509,0.019,-0.789,0,0
73.52,1,0.017,0.007,-0.018,0.028,0.004,-0.006,-1.509,0.017,-0.79,0,0
73.73,1,-0.058,-0.002,-0.001,-0.053,-0.006,-0.011,-1.511,0.018,-0.79,0,0
73.82,1,-0.048,-0.005,0.02,-0.056,-0.001,0.009,-1.513,0.018,-0.79,0,0
73.92,1,0.036,-0.019,0.008,-0.007,-0.011,0.009,-1.512,0.021,-0.789,0,0
74.02,1,0.011,-0.027,-0.009,0.01,-0.022,-0.002,-1.512,0.024,-0.789,0,0
74.12,1,-0.007,0.006,-0.012,0.005,-0.011,-0.003,-1.511,0.026,-0.789,0,0
74.23,1,-0.018,0.007,0.015,-0.01,0.002,0,-1.512,0.023,-0.789,0,0
74.32,1,-0.028,0.01,-0.01,-0.019,0.006,0.006,-1.512,0.023,-0.789,0,0
74.42,1,-0.024,-0.013,-0.001,-0.018,-0.002,-0.005,-1.511,0.023,-0.789,0,0
74.52,1,-0.039,-0.022,0.009,-0.034,-0.013,-0.001,-1.513,0.025,-0.788,0,0
74.62,1,0.024,-0.023,0.013,-0.011,-0.018,0.007,-1.515,0.026,-0.788,0,0
74.73,1,0.015,-0.029,-0.019,0.012,-0.025,0.001,-1.514,0.025,-0.788,0,0
74.83,1,-0.017,-0.004,-0.005,0,-0.02,-0.006,-1.512,0.024,-0.788,0,0
74.92,1,-0.023,-0.01,0.009,-0.016,-0.011,-0.001,-1.514,0.021,-0.788,0,0
75.03,1,0.003,-0.007,-0.015,-0.009,-0.006,-0.003,-1.513,0.02,-0.787,0,0
75.12,1,-0.017,-0.028,0.009,-0.008,-0.015,-0.001,-1.51,0.019,-0.787,0,0
75.22,1,-0.022,-0.012,0.002,-0.016,-0.016,-0.002,-1.508,0.019,-0.787,0,0
75.32,1,-0.048,-0.012,0.013,-0.033,-0.009,0.009,-1.509,0.016,-0.787,0,0
75.43,1,0.014,0.005,0.016,-0.019,-0.005,0.011,-1.509,0.016,-0.787,0,0
75.54,1,0.035,0.012,0.014,0.014,0.002,0.018,-1.509,0.016,-0.787,0,0
75.64,1,0.002,-0.008,-0.016,0.017,0,0,-1.507,0.018,-0.787,0,0
75.73,1,0.013,-0.009,0.017,0.007,-0.005,0.003,-1.507,0.019,-0.787,0,0
75.83,1,-0.017,-0.007,-0.018,-0.003,-0.008,-0.002,-1.507,0.021,-0.787,0,0
75.93,1,-0.059,-0.012,0.011,-0.027,-0.009,0.002,-1.507,0.026,-0.786,0,0
76.03,1,-0.012,-0.03,0.011,-0.028,-0.019,0.007,-1.51,0.029,-0.785,0,0
76.13,1,-0.011,-0.024,0.007,-0.02,-0.024,0.008,-1.511,0.033,-0.783,0,0
76.23,1,-0.042,-0.037,-0.006,-0.017,-0.032,0.004,-1.512,0.038,-0.782,0,0
76.33,1,-0.056,-0.017,0.002,-0.045,-0.027,-0.004,-1.514,0.039,-0.781,0,0
76.43,1,-0.028,0.018,0.014,-0.046,-0.005,0.004,-1.516,0.035,-0.782,0,0
76.53,1,0.006,0.059,0.008,-0.021,0.026,0.013,-1.518,0.028,-0.783,0,0
76.64,1,0.039,0.045,0.016,0.015,0.043,0.01,-1.518,0.025,-0.784,0,0
76.74,1,0.032,0.033,-0.024,0.03,0.04,0,-1.514,0.023,-0.784,0,0
76.83,1,-0.035,0.029,-0.007,0.002,0.038,-0.014,-1.514,0.021,-0.785,0,0
76.93,1,-0.037,0.011,0.02,-0.024,0.022,0.008,-1.515,0.022,-0.785,0,0
77.03,1,-0.005,0.006,0.002,-0.022,0.009,0.006,-1.513,0.022,-0.786,0,0
77.13,1,-0.005,0.006,-0.004,-0.008,0.009,-0.001,-1.513,0.022,-0.786,0,0
77.24,1,-0.018,0.01,0.026,-0.016,0.01,0.013,-1.513,0.02,-0.786,0,0
77.33,1,0.011,0.003,0.001,-0.002,0.01,0.007,-1.511,0.02,-0.786,0,0
77.44,1,-0.03,0.002,-0.007,-0.007,0.006,0.003,-1.512,0.023,-0.786,0,0
77.53,1,-0.03,-0.021,0.002,-0.022,-0.014,0.001,-1.513,0.023,-0.786,0,0
77.63,1,-0.007,-0.007,0.023,-0.023,-0.009,0.006,-1.513,0.022,-0.787,0,0
77.73,1,-0.017,0.023,0.005,-0.017,0.007,0.014,-1.512,0.021,-0.787,0,0
77.84,1,-0.003,0.001,-0.004,-0.007,0.006,0.003,-1.511,0.021,-0.787,0,0
77.94,1,-0.01,-0.009,0.002,-0.011,-0.002,-0.002,-1.512,0.021,-0.788,0,0
78.04,1,-0.023,0.007,0.006,-0.014,0.001,0.008,-1.513,0.022,-0.788,0,0
78.14,1,-0.04,0.015,-0.008,-0.028,0.009,-0.005,-1.516,0.022,-0.788,0,0
78.23,1,-0.001,-0.008,0.003,-0.017,0.006,0.002,-1.516,0.023,-0.788,0,0
78.33,1,-0.026,-0.043,-0.014,-0.014,-0.021,-0.005,-1.516,0.024,-0.788,0,0
78.43,1,-0.027,-0.03,0.031,-0.03,-0.031,0.002,-1.518,0.027,-0.787,0,0
78.53,1,0.031,-0.01,0.032,-0.002,-0.019,0.028,-1.521,0.028,-0.786,0,0
78.64,1,-0.027,-0.048,-0.005,0.004,-0.032,0.014,-1.522,0.03,-0.785,0,0
78.74,1,-0.062,-0.002,0.032,-0.028,-0.03,0.013,-1.526,0.029,-0.785,0,0
78.83,1,-0.029,0.034,0.064,-0.047,0.004,0.04,-1.532,0.023,-0.787,0,0
78.94,1,-0.03,0.007,0.033,-0.037,0.02,0.043,-1.536,0.018,-0.787,0,0
79.04,1,-0.02,0.007,0.048,-0.026,0.011,0.044,-1.542,0.02,-0.787,0,0
79.14,1,0.024,-0.018,0.056,-0.002,-0.005,0.049,-1.547,0.021,-0.786,0,0
79.25,1,-0.017,0.003,0.037,-0.002,-0.004,0.045,-1.554,0.021,-0.786,0,0
79.34,1,-0.016,0.016,0.059,-0.014,0.006,0.049,-1.559,0.019,-0.787,0,0
79.44,1,-0.028,0.012,0.03,-0.024,0.012,0.04,-1.562,0.02,-0.787,0,0
79.54,1,0.014,-0.005,0.062,-0.004,0.006,0.051,-1.566,0.019,-0.788,0,0
79.64,1,0.033,-0.011,0.025,0.02,-0.003,0.045,-1.569,0.019,-0.788,0,0
79.74,1,-0.015,-0.001,0.039,0.006,-0.004,0.035,-1.573,0.018,-0.788,0,0
79.84,1,-0.054,-0.026,0.045,-0.025,-0.013,0.041,-1.578,0.017,-0.789,0,0
79.94,1,-0.024,-0.004,0.041,-0.034,-0.012,0.041,-1.58,0.017,-0.79,0,0
80.04,1,-0.015,0.009,0.032,-0.019,-0.004,0.041,-1.583,0.014,-0.79,0,0
80.14,1,0.007,0.009,0.044,-0.013,0.005,0.033,-1.588,0.01,-0.791,0,0
80.24,1,0.016,-0.014,0.021,0.004,0,0.038,-1.593,0.009,-0.79,0,0
80.34,1,-0.009,-0.016,0.021,0.005,-0.008,0.024,-1.594,0.01,-0.79,0,0
80.44,1,0.002,-0.038,0.029,-0.003,-0.028,0.022,-1.597,0.013,-0.789,0,0
80.55,1,0.01,-0.04,0.032,0.003,-0.032,0.03,-1.599,0.016,-0.788,0,0
80.64,1,0.004,-0.01,0.021,0.006,-0.025,0.028,-1.601,0.017,-0.788,0,0
80.74,1,-0.023,-0.013,0.012,0,-0.015,0.021,-1.602,0.018,-0.788,0,0
80.84,1,-0.011,0.005,0.034,-0.017,-0.01,0.02,-1.604,0.018,-0.788,0,0
80.94,1,0.006,0.003,-0.011,-0.008,-0.001,0.013,-1.606,0.014,-0.789,0,0
81.05,1,-0.057,-0.006,-0.025,-0.021,0.001,-0.01,-1.605,0.012,-0.788,0,0
81.15,1,-0.052,-0.064,0.017,-0.042,-0.026,-0.001,-1.608,0.018,-0.786,0,0
81.24,1,0.034,-0.079,0.003,-0.011,-0.058,0.008,-1.608,0.025,-0.784,0,0
81.34,1,0.018,-0.072,-0.013,0.014,-0.073,-0.006,-1.606,0.03,-0.782,0,0
81.44,1,0,-0.048,0.001,0.007,-0.065,-0.004,-1.606,0.031,-0.781,0,0
81.55,1,-0.009,-0.047,0.009,-0.001,-0.047,0,-1.606,0.031,-0.779,0,0
81.64,1,-0.056,-0.001,-0.008,-0.026,-0.031,0.003,-1.608,0.035,-0.778,0,0
81.75,1,-0.004,-0.002,-0.006,-0.024,-0.008,-0.003,-1.607,0.034,-0.778,0,0
81.84,1,0.04,0.009,-0.025,0.007,-0.002,-0.013,-1.605,0.034,-0.778,0,0
81.94,1,0.008,0.031,-0.025,0.019,0.014,-0.019,-1.603,0.034,-0.778,0,0
82.04,1,-0.042,0.02,-0.042,-0.009,0.018,-0.033,-1.6,0.032,-0.779,0,0
82.15,1,-0.021,0.026,-0.04,-0.027,0.02,-0.036,-1.596,0.03,-0.78,0,0
82.24,1,-0.011,0.025,-0.055,-0.02,0.029,-0.045,-1.593,0.029,-0.781,0,0
82.36,1,-0.027,-0.001,-0.05,-0.023,0.017,-0.049,-1.587,0.029,-0.781,0,0
82.46,1,0.019,0.004,-0.045,-0.006,0.002,-0.045,-1.584,0.03,-0.781,0,0
82.55,1,0.055,0.006,-0.025,0.023,0.005,-0.039,-1.582,0.03,-0.781,0,0
82.65,1,0.023,0.001,-0.043,0.032,0.008,-0.035,-1.579,0.031,-0.781,0,0
82.76,1,0.026,-0.008,-0.047,0.033,-0.001,-0.046,-1.574,0.031,-0.781,0,0
82.85,1,-0.05,-0.021,-0.036,-0.001,-0.01,-0.039,-1.574,0.032,-0.78,0,0
82.96,1,-0.061,0.025,-0.01,-0.041,0.003,-0.027,-1.573,0.032,-0.78,0,0
83.05,1,0,0.007,-0.016,-0.031,0.009,-0.018,-1.571,0.032,-0.78,0,0
83.15,1,0.004,-0.011,-0.039,-0.008,0.003,-0.028,-1.569,0.033,-0.779,0,0
83.25,1,-0.005,0.01,-0.025,-0.006,0.001,-0.03,-1.569,0.035,-0.779,0,0
83.35,1,-0.009,0.006,-0.022,-0.009,0.006,-0.023,-1.569,0.037,-0.779,0,0
83.46,1,0.008,-0.013,-0.059,0.005,-0.002,-0.037,-1.563,0.039,-0.778,0,0
83.55,1,-0.001,-0.017,-0.04,0.009,-0.012,-0.041,-1.558,0.04,-0.778,0,0
83.65,1,-0.011,-0.013,-0.048,-0.003,-0.015,-0.046,-1.554,0.04,-0.778,0,0
83.75,1,-0.015,-0.014,-0.057,-0.015,-0.015,-0.051,-1.551,0.039,-0.778,0,0
83.85,1,0.003,0.006,-0.022,-0.009,-0.004,-0.041,-1.55,0.039,-0.777,0,0
83.95,1,0.004,-0.002,-0.036,-0.004,0.002,-0.034,-1.547,0.038,-0.777,0,0
84.06,1,-0.012,0,-0.025,-0.002,-0.002,-0.03,-1.543,0.035,-0.777,0,0
84.16,1,-0.01,-0.003,-0.027,-0.005,-0.004,-0.027,-1.54,0.036,-0.777,0,0
84.25,1,0.004,-0.005,-0.023,-0.007,-0.002,-0.026,-1.537,0.034,-0.777,0,0
84.35,1,-0.008,-0.004,-0.021,0,-0.004,-0.023,-1.535,0.034,-0.777,0,0
84.46,1,-0.032,-0.013,-0.026,-0.016,-0.007,-0.025,-1.534,0.035,-0.776,0,0
84.56,1,-0.001,0.001,-0.01,-0.017,-0.006,-0.022,-1.531,0.035,-0.776,0,0
84.65,1,0.03,0.024,-0.012,0.008,0.009,-0.011,-1.532,0.031,-0.776,0,0
84.76,1,-0.024,0.023,-0.015,-0.003,0.016,-0.012,-1.532,0.031,-0.776,0,0
84.86,1,-0.016,0.022,-0.012,-0.012,0.02,-0.015,-1.532,0.028,-0.776,0,0
84.95,1,-0.025,0.026,-0.015,-0.016,0.024,-0.014,-1.535,0.026,-0.776,0,0
85.05,1,-0.064,0.021,0.009,-0.036,0.024,-0.003,-1.537,0.023,-0.777,0,0
85.15,1,0.003,0.042,0.024,-0.034,0.03,0.01,-1.54,0.02,-0.778,0,0
85.26,1,-0.017,0.039,0.002,-0.01,0.039,0.01,-1.54,0.015,-0.779,0,0
85.36,1,-0.013,0.024,0.028,-0.019,0.031,0.013,-1.542,0.013,-0.78,0,0
85.46,1,0.002,0.025,0.02,-0.005,0.027,0.024,-1.544,0.009,-0.78,0,0
85.56,1,-0.007,0.016,0.013,-0.004,0.023,0.017,-1.546,0.006,-0.781,0,0
85.65,1,-0.004,0.004,0.012,-0.003,0.013,0.013,-1.549,0.007,-0.782,0,0
85.76,1,-0.015,-0.009,0.026,-0.013,0.002,0.02,-1.55,0.008,-0.782,0,0
85.86,1,0.051,0.037,0.009,0.008,0.011,0.01,-1.551,0.009,-0.782,0,0
