Timestamp (seconds),system activated, Acceleration in X (Gs),Acceleration in Y (Gs), Altitude (meters),Acceleration in X filtered by KF (Gs),Acceleration in Y filtered by KF (Gs),Acceleration in Z filtered by KF (Gs),Roll (degrees),Pitch (degrees),Yaw (degrees),Event type,level
13.91,1,0.102,0.042,0.052,0.05,0.039,0.043,-1.698,-0.017,-1.526,0,0
14,1,0.111,0.004,-0.027,0.089,0.03,0.02,-1.694,-0.014,-1.527,0,0
14.11,1,0.02,0.02,-0.019,0.074,0.022,-0.009,-1.693,-0.014,-1.528,0,0
14.2,1,-0.131,-0.003,-0.056,-0.02,0.001,-0.025,-1.691,-0.016,-1.53,0,0
14.3,1,-0.161,0.02,-0.048,-0.116,0.012,-0.05,-1.692,-0.019,-1.532,0,0
14.4,1,0.03,-0.008,0.03,-0.071,0.005,-0.019,-1.694,-0.021,-1.534,0,0
14.5,1,0.021,0.042,-0.037,-0.01,0.018,0.008,-1.692,-0.021,-1.535,0,0
14.6,1,0.108,0.009,-0.065,0.065,0.016,-0.044,-1.69,-0.021,-1.537,0,0
14.71,1,-0.028,0.044,-0.083,0.03,0.027,-0.066,-1.689,-0.02,-1.538,0,0
14.8,1,-0.083,0.044,-0.062,-0.03,0.042,-0.078,-1.679,-0.023,-1.539,0,0
14.9,1,-0.038,-0.003,-0.069,-0.053,0.024,-0.062,-1.675,-0.02,-1.541,0,0
15,1,-0.06,0.009,-0.053,-0.057,0.012,-0.057,-1.672,-0.019,-1.543,0,0
15.1,1,0.028,0.002,-0.042,-0.02,0.003,-0.057,-1.666,-0.02,-1.545,0,0
15.2,1,0.086,0.02,-0.042,0.036,0.009,-0.044,-1.66,-0.024,-1.547,0,0
15.3,1,0.031,0.046,-0.048,0.053,0.028,-0.044,-1.656,-0.026,-1.549,0,0
15.41,1,0.081,0.007,-0.093,0.058,0.022,-0.067,-1.649,-0.028,-1.551,0,0
15.5,1,0.01,-0.003,-0.107,0.042,0.01,-0.09,-1.638,-0.029,-1.552,0,0
15.6,1,-0.035,-0.008,-0.096,0.002,0.001,-0.101,-1.623,-0.03,-1.554,0,0
15.7,1,0.005,0.027,-0.09,-0.013,0.008,-0.09,-1.612,-0.032,-1.556,0,0
15.82,1,-0.041,0.045,-0.082,-0.018,0.035,-0.088,-1.607,-0.032,-1.558,0,0
15.9,1,0.035,0.022,-0.051,0.007,0.02,-0.071,-1.607,-0.03,-1.56,0,0
16.01,1,0.027,-0.009,-0.073,0.019,0.012,-0.063,-1.603,-0.028,-1.562,0,0
16.11,1,-0.051,0.004,-0.098,-0.002,0.006,-0.086,-1.598,-0.024,-1.563,0,0
16.21,1,-0.147,0.008,-0.061,-0.081,0.005,-0.079,-1.597,-0.022,-1.565,0,0
16.31,1,-0.046,-0.009,-0.016,-0.082,-0.001,-0.044,-1.6,-0.021,-1.567,0,0
16.41,1,-0.033,-0.004,-0.066,-0.066,0,-0.05,-1.599,-0.019,-1.568,0,0
16.51,1,0.032,-0.015,-0.042,0,-0.012,-0.048,-1.591,-0.02,-1.569,0,0
16.61,1,0.026,-0.011,-0.054,0.016,-0.013,-0.05,-1.584,-0.019,-1.57,0,0
16.71,1,-0.019,-0.01,-0.048,-0.006,-0.008,-0.054,-1.578,-0.018,-1.571,0,0
16.81,1,-0.034,0.01,-0.051,-0.007,-0.004,-0.05,-1.574,-0.016,-1.571,0,0
16.91,1,-0.011,-0.01,-0.028,-0.024,-0.002,-0.04,-1.576,-0.014,-1.572,0,0
17.02,1,-0.049,-0.004,-0.011,-0.03,-0.003,-0.022,-1.58,-0.013,-1.573,0,0
17.11,1,-0.002,-0.015,0,-0.016,-0.006,-0.011,-1.582,-0.013,-1.574,0,0
17.21,1,-0.013,-0.006,-0.02,-0.017,-0.009,-0.014,-1.58,-0.014,-1.575,0,0
17.31,1,0.008,0.003,-0.025,-0.009,-0.005,-0.02,-1.575,-0.017,-1.576,0,0
17.41,1,0.036,0,-0.002,0.017,-0.002,-0.015,-1.573,-0.018,-1.577,0,0
17.51,1,-0.03,0.017,-0.043,-0.006,0.013,-0.025,-1.571,-0.018,-1.578,0,0
17.61,1,0.013,-0.023,-0.036,0.012,-0.008,-0.027,-1.571,-0.019,-1.579,0,0
17.71,1,-0.023,0.008,-0.04,-0.011,-0.001,-0.037,-1.569,-0.017,-1.58,0,0
17.82,1,-0.027,0.023,-0.028,-0.01,0.005,-0.032,-1.568,-0.018,-1.581,0,0
17.91,1,-0.018,0.023,-0.023,-0.027,0.018,-0.032,-1.566,-0.02,-1.581,0,0
18.01,1,-0.007,0.013,-0.018,-0.019,0.019,-0.022,-1.567,-0.019,-1.581,0,0
18.11,1,0.035,-0.041,-0.019,0.009,-0.006,-0.018,-1.564,-0.016,-1.581,0,0
18.21,1,0.056,-0.062,-0.039,0.039,-0.038,-0.03,-1.558,-0.011,-1.581,0,0
18.32,1,-0.004,-0.023,-0.058,0.019,-0.038,-0.044,-1.553,-0.007,-1.581,0,0
18.41,1,-0.052,-0.002,-0.028,-0.011,-0.023,-0.037,-1.55,-0.007,-1.58,0,0
18.52,1,-0.029,0.005,-0.03,-0.026,-0.006,-0.034,-1.548,-0.009,-1.58,0,0
18.62,1,-0.008,0.006,-0.013,-0.02,0.005,-0.024,-1.549,-0.009,-1.579,0,0
18.71,1,0.019,-0.057,-0.032,-0.001,-0.017,-0.026,-1.549,-0.004,-1.577,0,0
18.82,1,0.023,-0.083,0.004,0.009,-0.053,-0.013,-1.549,0.007,-1.573,0,0
18.92,1,0.004,-0.066,0.004,0.011,-0.066,-0.004,-1.548,0.018,-1.57,0,0
19.02,1,0.028,-0.077,0.03,0.018,-0.07,0.013,-1.549,0.026,-1.566,0,0
19.12,1,0.02,-0.056,0.032,0.026,-0.066,0.026,-1.551,0.028,-1.563,0,0
19.22,1,-0.03,-0.043,0.023,-0.009,-0.057,0.024,-1.555,0.031,-1.559,0,0
19.31,1,-0.064,-0.029,0.055,-0.03,-0.044,0.033,-1.56,0.033,-1.556,0,0
19.42,1,0.005,-0.01,0.049,-0.03,-0.026,0.045,-1.566,0.031,-1.553,0,0
19.52,1,-0.004,-0.001,0.037,-0.01,-0.009,0.041,-1.569,0.029,-1.55,0,0
19.62,1,0.019,-0.025,0.01,0.004,-0.018,0.034,-1.573,0.033,-1.547,0,0
19.72,1,-0.029,-0.028,0.022,-0.002,-0.02,0.02,-1.574,0.035,-1.545,0,0
19.83,1,0.011,-0.029,0.01,0.004,-0.033,0.019,-1.573,0.036,-1.543,0,0
19.92,1,-0.052,0.016,-0.002,-0.039,-0.005,0.009,-1.572,0.032,-1.541,0,0
20.02,1,0.077,0.001,-0.023,0.024,0.002,-0.003,-1.574,0.032,-1.54,0,0
20.12,1,-0.08,0.042,-0.025,-0.008,0.021,-0.023,-1.576,0.029,-1.538,0,0
20.22,1,-0.032,-0.023,0.009,-0.039,0.001,-0.007,-1.578,0.029,-1.536,0,0
20.32,1,-0.003,0.04,0.004,-0.026,0.014,-0.002,-1.579,0.028,-1.535,0,0
20.42,1,0.017,0.035,0.004,-0.003,0.028,-0.003,-1.579,0.029,-1.534,0,0
20.52,1,0.045,-0.006,-0.021,0.03,0.017,-0.002,-1.578,0.031,-1.532,0,0
20.62,1,0.036,0.046,-0.043,0.038,0.027,-0.02,-1.572,0.03,-1.533,0,0
20.73,1,0.005,0.05,-0.02,0.018,0.037,-0.029,-1.567,0.025,-1.534,0,0
20.83,1,-0.065,0.088,-0.019,-0.015,0.057,-0.022,-1.566,0.018,-1.535,0,0
20.93,1,-0.04,0.024,-0.014,-0.042,0.057,-0.02,-1.567,0.016,-1.536,0,0
21.03,1,-0.051,0.006,-0.027,-0.047,0.024,-0.021,-1.566,0.012,-1.537,0,0
21.12,1,0.034,0.023,0.009,-0.012,0.021,-0.008,-1.567,0.006,-1.538,0,0
21.22,1,0.023,0.061,-0.01,0.013,0.037,-0.007,-1.568,-0.001,-1.539,0,0
21.32,1,0.04,0.028,0.001,0.033,0.036,0.002,-1.567,-0.007,-1.54,0,0
21.42,1,-0.009,0.016,-0.029,0.006,0.035,-0.016,-1.565,-0.009,-1.541,0,0
21.53,1,0.005,0.005,-0.017,0.011,0.015,-0.018,-1.562,-0.012,-1.543,0,0
21.62,1,-0.05,0.001,-0.015,-0.018,0.005,-0.017,-1.559,-0.013,-1.543,0,0
21.72,1,-0.012,0.016,-0.01,-0.028,0.012,-0.015,-1.559,-0.013,-1.544,0,0
21.82,1,-0.042,0.027,-0.015,-0.034,0.021,-0.014,-1.561,-0.013,-1.545,0,0
21.92,1,0.037,0,0.014,0.007,0.006,-0.002,-1.563,-0.013,-1.545,0,0
22.02,1,0.023,-0.001,-0.006,0.01,0.007,-0.001,-1.563,-0.013,-1.545,0,0
22.13,1,-0.002,0.01,-0.029,0.013,0.006,-0.013,-1.56,-0.014,-1.546,0,0
22.23,1,0.008,-0.02,-0.02,0.012,-0.005,-0.019,-1.557,-0.013,-1.546,0,0
22.32,1,-0.019,-0.016,-0.018,-0.008,-0.013,-0.022,-1.555,-0.011,-1.546,0,0
22.42,1,-0.035,0.002,-0.015,-0.023,-0.01,-0.016,-1.556,-0.009,-1.546,0,0
22.52,1,-0.027,0.003,-0.008,-0.027,-0.008,-0.016,-1.558,-0.007,-1.546,0,0
22.63,1,-0.057,0.026,-0.035,-0.04,0.013,-0.024,-1.559,-0.007,-1.546,0,0
22.73,1,0.018,-0.03,0.011,-0.021,0.002,-0.009,-1.56,-0.007,-1.546,0,0
22.82,1,0.036,-0.038,-0.015,0.016,-0.024,-0.001,-1.56,-0.008,-1.546,0,0
22.92,1,-0.016,0.003,-0.018,0.006,-0.014,-0.013,-1.559,-0.009,-1.546,0,0
23.02,1,0.019,0.009,-0.002,0.015,0,-0.008,-1.557,-0.008,-1.545,0,0
23.12,1,-0.001,0.008,-0.001,0.005,0.007,-0.005,-1.556,-0.007,-1.545,0,0
23.23,1,-0.005,-0.003,0.01,-0.007,0.005,-0.001,-1.559,-0.009,-1.544,0,0
23.33,1,0.048,-0.001,0.059,0.012,-0.005,0.03,-1.559,-0.011,-1.544,0,0
23.44,1,0.033,0.003,0.039,0.029,0.003,0.037,-1.558,-0.01,-1.543,0,0
23.54,1,-0.001,0.005,0.02,0.03,0.002,0.031,-1.559,-0.004,-1.543,0,0
23.63,1,0.001,0.002,0.035,0.004,0.007,0.028,-1.56,0,-1.543,0,0
23.73,1,-0.016,0.014,0.037,0.001,0.005,0.039,-1.563,0.002,-1.543,0,0
23.83,1,-0.049,-0.016,0.035,-0.025,0.001,0.033,-1.565,0.004,-1.543,0,0
23.93,1,-0.024,-0.017,0.052,-0.033,-0.012,0.043,-1.57,0.002,-1.543,0,0
24.03,1,0.012,0.016,0.046,-0.012,-0.005,0.045,-1.572,0.002,-1.543,0,0
24.13,1,0.01,0.043,0.038,-0.004,0.019,0.039,-1.575,-0.001,-1.543,0,0
24.23,1,-0.027,-0.007,0.012,-0.004,0.01,0.029,-1.576,0,-1.543,0,0
24.33,1,-0.036,-0.055,0.048,-0.025,-0.012,0.028,-1.577,0.002,-1.543,0,0
24.44,1,-0.057,-0.033,0.05,-0.038,-0.029,0.048,-1.578,0.002,-1.544,0,0
24.53,1,-0.037,0.009,0.035,-0.035,-0.03,0.043,-1.579,-0.001,-1.544,0,0
24.64,1,-0.016,-0.007,0.06,-0.032,0.003,0.049,-1.581,-0.004,-1.544,0,0
24.74,1,0.009,0.016,0.036,-0.014,0.005,0.044,-1.581,-0.006,-1.544,0,0
24.83,1,0.016,0.037,0.043,-0.001,0.021,0.045,-1.582,-0.006,-1.544,0,0
24.93,1,-0.034,0.038,0.051,-0.001,0.029,0.045,-1.589,-0.005,-1.544,0,0
25.03,1,-0.042,-0.016,0.035,-0.032,0.012,0.044,-1.596,-0.001,-1.544,0,0
25.13,1,-0.024,-0.005,0.038,-0.022,-0.003,0.038,-1.601,-0.004,-1.543,0,0
25.24,1,0.028,-0.007,0.047,-0.01,-0.001,0.041,-1.606,-0.004,-1.544,0,0
25.33,1,-0.012,-0.01,0.023,-0.01,-0.004,0.037,-1.61,-0.006,-1.543,0,0
25.43,1,-0.052,0.023,0.025,-0.014,0.002,0.026,-1.612,-0.007,-1.543,0,0
25.53,1,-0.013,0.035,0.037,-0.031,0.021,0.029,-1.618,-0.006,-1.542,0,0
25.64,1,0.031,0.01,0.042,-0.002,0.021,0.042,-1.62,-0.007,-1.541,0,0
25.73,1,-0.023,-0.002,-0.009,0.004,0.009,0.017,-1.618,-0.003,-1.541,0,0
25.84,1,0.037,-0.034,0.046,0.01,-0.013,0.024,-1.621,-0.001,-1.54,0,0
25.94,1,0.039,-0.04,0.028,0.029,-0.027,0.031,-1.623,-0.001,-1.54,0,0
26.03,1,0.007,-0.006,-0.002,0.028,-0.029,0.018,-1.621,-0.007,-1.541,0,0
26.13,1,-0.02,0.02,0.019,-0.004,-0.001,0.007,-1.621,-0.011,-1.541,0,0
26.23,1,-0.049,-0.022,0.018,-0.035,-0.003,0.015,-1.62,-0.01,-1.54,0,0
26.33,1,0.033,-0.027,0.027,-0.003,-0.016,0.024,-1.621,-0.011,-1.54,0,0
26.44,1,0.045,-0.02,0.022,0.028,-0.019,0.025,-1.623,-0.014,-1.54,0,0
26.53,1,0.001,0.002,0.022,0.023,-0.011,0.021,-1.622,-0.017,-1.54,0,0
26.63,1,-0.043,0.006,-0.007,-0.008,-0.004,0.011,-1.623,-0.021,-1.54,0,0
26.74,1,-0.069,0.014,-0.005,-0.047,0.009,0.002,-1.624,-0.022,-1.54,0,0
26.84,1,-0.054,-0.015,-0.003,-0.051,0.003,-0.001,-1.625,-0.021,-1.54,0,0
26.94,1,-0.045,-0.012,-0.026,-0.051,-0.009,-0.012,-1.623,-0.019,-1.54,0,0
27.04,1,-0.002,0,0.005,-0.033,-0.008,-0.013,-1.625,-0.017,-1.54,0,0
27.14,1,-0.017,0.021,-0.018,-0.024,0.011,-0.009,-1.624,-0.018,-1.539,0,0
27.24,1,-0.025,-0.047,-0.011,-0.015,-0.016,-0.012,-1.622,-0.017,-1.539,0,0
27.34,1,0.025,-0.023,0.016,-0.001,-0.025,0.001,-1.622,-0.017,-1.539,0,0
27.44,1,0.014,-0.012,-0.035,0.011,-0.019,-0.011,-1.618,-0.016,-1.539,0,0
27.54,1,-0.006,-0.026,-0.03,0.004,-0.019,-0.027,-1.613,-0.012,-1.538,0,0
27.65,1,0.014,-0.01,-0.013,0.013,-0.023,-0.017,-1.611,-0.011,-1.537,0,0
27.74,1,-0.022,-0.015,-0.021,-0.005,-0.013,-0.018,-1.607,-0.007,-1.535,0,0
27.84,1,-0.028,-0.038,-0.035,-0.021,-0.023,-0.025,-1.604,-0.004,-1.534,0,0
27.94,1,0.002,-0.008,-0.047,-0.016,-0.025,-0.032,-1.599,-0.003,-1.534,0,0
28.04,1,-0.017,-0.004,-0.05,-0.009,-0.009,-0.045,-1.593,-0.004,-1.533,0,0
28.14,1,-0.03,-0.007,-0.056,-0.027,-0.003,-0.056,-1.588,-0.004,-1.532,0,0
28.24,1,-0.05,-0.011,-0.058,-0.026,-0.012,-0.055,-1.584,-0.004,-1.531,0,0
28.35,1,-0.014,-0.034,-0.045,-0.028,-0.018,-0.052,-1.58,-0.003,-1.529,0,0
28.44,1,-0.028,-0.023,-0.042,-0.03,-0.025,-0.046,-1.577,-0.002,-1.528,0,0
28.54,1,-0.005,-0.027,-0.025,-0.011,-0.029,-0.038,-1.577,-0.003,-1.527,0,0
28.64,1,-0.001,-0.024,-0.032,-0.014,-0.024,-0.033,-1.575,-0.003,-1.526,0,0
28.75,1,0.005,0.004,-0.025,0.006,-0.02,-0.024,-1.574,-0.004,-1.524,0,0
28.84,1,-0.029,-0.003,-0.041,-0.02,0.005,-0.037,-1.573,-0.004,-1.523,0,0
28.94,1,-0.06,-0.018,-0.007,-0.039,-0.009,-0.025,-1.572,-0.003,-1.52,0,0
29.04,1,-0.035,-0.034,-0.033,-0.027,-0.024,-0.019,-1.573,0.001,-1.518,0,0
29.14,1,0.052,-0.075,-0.035,-0.003,-0.047,-0.034,-1.571,0.003,-1.515,0,0
29.24,1,0,-0.056,0.037,0.007,-0.058,-0.003,-1.565,0.003,-1.513,0,0
29.35,1,-0.001,-0.063,0.008,0.017,-0.063,0.013,-1.565,0,-1.511,0,0
29.44,1,0,-0.03,0.025,-0.025,-0.038,0.01,-1.566,-0.002,-1.509,0,0
29.55,1,-0.019,0.001,-0.003,0.006,-0.026,0.008,-1.565,0,-1.507,0,0
29.64,1,-0.017,-0.033,0.022,-0.015,-0.025,0.014,-1.568,0.004,-1.504,0,0
29.74,1,-0.031,-0.026,0.005,-0.02,-0.026,0.016,-1.573,0.007,-1.501,0,0
29.84,1,-0.018,-0.037,0.022,-0.027,-0.027,0.012,-1.575,0.009,-1.499,0,0
29.94,1,-0.024,-0.031,0.001,-0.017,-0.036,0.014,-1.575,0.011,-1.496,0,0
30.04,1,0.052,-0.053,0.051,0.004,-0.039,0.022,-1.576,0.012,-1.493,0,0
30.14,1,-0.076,-0.024,0.014,-0.015,-0.038,0.027,-1.58,0.013,-1.49,0,0
30.25,1,0.041,-0.05,0.022,-0.004,-0.039,0.023,-1.582,0.016,-1.487,0,0
30.35,1,-0.016,-0.029,-0.004,0.002,-0.037,0.011,-1.584,0.022,-1.484,0,0
30.45,1,0.012,-0.046,0.013,-0.002,-0.038,0.009,-1.587,0.028,-1.48,0,0
30.55,1,0.005,-0.035,-0.005,0.006,-0.041,0.003,-1.59,0.029,-1.476,0,0
30.65,1,0.024,-0.026,-0.003,0.009,-0.031,0,-1.589,0.03,-1.473,0,0
30.75,1,-0.036,-0.019,-0.002,-0.007,-0.024,-0.004,-1.588,0.033,-1.469,0,0
30.85,1,-0.041,-0.037,0.019,-0.028,-0.031,0.007,-1.588,0.036,-1.465,0,0
30.95,1,-0.04,-0.009,0.002,-0.033,-0.023,0.008,-1.591,0.04,-1.461,0,0
31.05,1,0.027,-0.046,0.041,-0.008,-0.03,0.021,-1.595,0.04,-1.458,0,0
31.15,1,-0.035,-0.043,-0.003,-0.024,-0.039,0.017,-1.598,0.038,-1.454,0,0
31.25,1,-0.027,0.005,0.001,-0.009,-0.023,0.007,-1.599,0.039,-1.451,0,0
31.35,1,-0.015,0.002,0.005,-0.022,-0.003,-0.002,-1.601,0.042,-1.446,0,0
31.45,1,-0.025,-0.041,0.008,-0.022,-0.019,0.007,-1.6,0.043,-1.443,0,0
31.55,1,-0.042,-0.029,0.022,-0.03,-0.027,0.015,-1.599,0.046,-1.44,0,0
31.65,1,-0.021,-0.001,0.029,-0.026,-0.018,0.017,-1.6,0.048,-1.437,0,0
31.75,1,-0.007,0.011,0.031,-0.021,-0.001,0.03,-1.603,0.05,-1.434,0,0
31.85,1,0.008,0.009,0.023,-0.007,0.008,0.025,-1.605,0.049,-1.431,0,0
31.96,1,-0.01,0.007,0.041,-0.006,0.005,0.03,-1.607,0.049,-1.428,0,0
32.06,1,0.015,0.009,0.035,-0.001,0.009,0.04,-1.613,0.046,-1.424,0,0
32.15,1,-0.01,0.009,0.027,0.009,0.006,0.032,-1.615,0.047,-1.421,0,0
32.25,1,-0.022,0.006,0.034,-0.011,0.007,0.03,-1.616,0.05,-1.418,0,0
32.35,1,-0.048,0.004,0.011,-0.025,0.007,0.021,-1.618,0.052,-1.415,0,0
32.46,1,-0.003,0.017,0.052,-0.026,0.009,0.035,-1.62,0.05,-1.412,0,0
32.55,1,-0.017,0.035,0.021,-0.017,0.022,0.031,-1.624,0.048,-1.406,0,0
32.65,1,-0.032,-0.008,0.003,-0.02,0.018,0.018,-1.627,0.048,-1.402,0,0
32.75,1,-0.058,-0.042,0.043,-0.043,-0.017,0.023,-1.632,0.049,-1.399,0,0
32.86,1,-0.015,-0.03,0.009,-0.023,-0.031,0.025,-1.635,0.05,-1.395,0,0
32.95,1,-0.041,-0.021,0.018,-0.042,-0.02,0.014,-1.635,0.053,-1.39,0,0
33.06,1,-0.036,-0.05,0.02,-0.029,-0.038,0.018,-1.638,0.056,-1.385,0,0
33.16,1,-0.054,-0.012,0.001,-0.051,-0.027,0.013,-1.638,0.058,-1.38,0,0
33.26,1,-0.008,-0.056,0.018,-0.03,-0.041,0.012,-1.642,0.062,-1.374,0,0
33.35,1,0.02,-0.067,0.004,-0.012,-0.048,0.006,-1.642,0.064,-1.369,0,0
33.45,1,0.023,-0.037,-0.001,0.018,-0.047,0.002,-1.64,0.064,-1.365,0,0
33.56,1,-0.02,-0.026,0.009,0.005,-0.036,0.004,-1.641,0.063,-1.36,0,0
33.66,1,-0.05,-0.015,-0.015,-0.018,-0.027,0.004,-1.641,0.064,-1.355,0,0
33.76,1,-0.078,-0.014,0.016,-0.058,-0.024,0.002,-1.64,0.066,-1.351,0,0
33.86,1,-0.06,0.012,0,-0.069,-0.006,0.008,-1.641,0.069,-1.347,0,0
33.96,1,-0.012,0.003,0.013,-0.037,0.004,-0.001,-1.642,0.068,-1.343,0,0
34.06,1,0,-0.006,0.023,-0.019,0.002,0.015,-1.642,0.07,-1.339,0,0
34.16,1,0.041,-0.003,0.004,0.01,-0.009,0.018,-1.642,0.071,-1.334,0,0
34.26,1,-0.036,0.022,-0.011,-0.002,0.006,-0.003,-1.64,0.07,-1.332,0,0
34.37,1,-0.029,0.06,0.011,-0.021,0.029,0.004,-1.642,0.065,-1.33,0,0
34.46,1,-0.048,0.034,-0.021,-0.029,0.043,-0.006,-1.641,0.065,-1.327,0,0
34.56,1,-0.026,0.004,0.033,-0.044,0.028,0.009,-1.644,0.067,-1.324,0,0
34.66,1,0.053,0.023,0,0.005,0.016,0.014,-1.643,0.068,-1.322,0,0
34.76,1,0.013,0.057,-0.022,0.019,0.036,-0.004,-1.642,0.06,-1.321,0,0
34.86,1,-0.071,0.076,-0.026,-0.017,0.056,-0.016,-1.642,0.051,-1.32,0,0
34.96,1,-0.139,0.051,-0.006,-0.075,0.056,-0.02,-1.643,0.048,-1.318,0,0
35.06,1,-0.122,0.048,-0.004,-0.114,0.054,-0.004,-1.646,0.046,-1.316,0,0
35.16,1,-0.025,0.02,0.027,-0.082,0.039,0.002,-1.647,0.045,-1.314,0,0
35.26,1,0.046,0.041,0.011,-0.016,0.032,0.015,-1.646,0.044,-1.313,0,0
35.36,1,0.034,0.032,-0.001,0.021,0.037,0.004,-1.644,0.041,-1.312,0,0
35.46,1,-0.018,0.045,-0.023,0.009,0.038,-0.001,-1.645,0.038,-1.311,0,0
35.56,1,-0.049,0.04,0.016,-0.019,0.046,-0.008,-1.645,0.034,-1.31,0,0
35.67,1,0.003,0.022,0.004,-0.016,0.032,0.01,-1.645,0.034,-1.308,0,0
35.76,1,-0.044,0.023,-0.028,-0.023,0.025,-0.011,-1.641,0.035,-1.305,0,0
35.86,1,0.009,-0.015,-0.021,-0.021,0.012,-0.018,-1.639,0.038,-1.303,0,0
35.96,1,0.012,-0.019,-0.014,0.007,-0.012,-0.016,-1.639,0.037,-1.301,0,0
36.06,1,0.006,0.03,0.004,0.004,0.005,-0.012,-1.638,0.034,-1.298,0,0
36.17,1,0.028,0.019,0.036,0.014,0.018,0.015,-1.64,0.03,-1.296,0,0
36.26,1,0.044,0.016,0.013,0.032,0.014,0.017,-1.639,0.028,-1.294,0,0
36.36,1,0.024,0.013,0.015,0.037,0.019,0.019,-1.635,0.028,-1.292,0,0
36.46,1,-0.012,-0.035,0.019,0.013,-0.006,0.018,-1.63,0.03,-1.29,0,0
36.56,1,-0.089,0.009,0.031,-0.038,-0.01,0.023,-1.631,0.03,-1.288,0,0
36.67,1,-0.087,0.04,0.043,-0.077,0.014,0.028,-1.632,0.026,-1.287,0,0
36.76,1,-0.052,-0.006,-0.002,-0.07,0.021,0.028,-1.633,0.024,-1.286,0,0
36.87,1,0.053,0.02,0.025,-0.014,0.006,0.017,-1.633,0.024,-1.283,0,0
36.97,1,0.074,0.048,-0.001,0.034,0.018,0.009,-1.632,0.023,-1.285,0,0
37.07,1,0.003,0.102,-0.025,0.043,0.072,-0.003,-1.631,0.023,-1.284,0,0
37.17,1,0,0.063,0.002,0.014,0.074,-0.009,-1.631,0.023,-1.285,0,0
37.27,1,-0.091,0.09,-0.009,-0.035,0.079,-0.005,-1.63,0.018,-1.285,0,0
37.37,1,-0.006,0.058,-0.002,-0.033,0.076,-0.008,-1.629,0.012,-1.285,0,0
37.47,1,-0.017,0.042,-0.008,-0.023,0.052,-0.006,-1.629,0.004,-1.283,0,0
37.57,1,-0.024,0.028,0.009,-0.025,0.042,0.002,-1.632,0,-1.282,0,0
37.67,1,-0.018,0.011,-0.003,-0.018,0.027,0.001,-1.632,-0.002,-1.281,0,0
37.77,1,0.017,0.026,0.019,-0.007,0.023,0.009,-1.632,-0.004,-1.282,0,0
37.87,1,-0.002,0.014,-0.023,0.003,0.018,-0.002,-1.63,-0.005,-1.281,0,0
37.97,1,-0.033,0.014,0,-0.014,0.018,-0.006,-1.628,-0.006,-1.281,0,0
38.08,1,0.006,-0.004,0.02,-0.009,0.008,0.006,-1.63,-0.007,-1.279,0,0
38.17,1,-0.014,-0.019,0.003,-0.009,-0.005,0.007,-1.632,-0.004,-1.277,0,0
38.27,1,-0.018,-0.02,0.001,-0.014,-0.014,0.006,-1.632,-0.002,-1.275,0,0
38.37,1,-0.009,-0.019,-0.004,-0.014,-0.021,-0.002,-1.633,0.001,-1.272,0,0
38.47,1,0.009,-0.044,-0.006,-0.004,-0.03,-0.003,-1.633,0.004,-1.27,0,0
38.57,1,-0.041,-0.008,-0.019,-0.007,-0.029,-0.009,-1.631,0.004,-1.268,0,0
38.67,1,-0.001,-0.015,0.016,-0.024,-0.011,-0.004,-1.633,0.006,-1.267,0,0
38.77,1,-0.032,0.014,-0.012,-0.023,0.002,-0.002,-1.634,0.007,-1.264,0,0
38.87,1,0.013,-0.019,-0.009,-0.005,-0.01,-0.006,-1.634,0.008,-1.262,0,0
38.97,1,-0.066,0.005,-0.005,-0.028,-0.004,-0.009,-1.634,0.012,-1.26,0,0
39.07,1,0.035,-0.017,0.011,-0.012,-0.008,0.005,-1.634,0.014,-1.258,0,0
39.17,1,0.004,-0.002,-0.003,0.003,-0.004,0.002,-1.632,0.014,-1.257,0,0
39.28,1,-0.012,0.003,-0.022,0.007,-0.003,-0.01,-1.63,0.012,-1.255,0,0
39.37,1,-0.048,-0.005,0.003,-0.021,-0.002,-0.01,-1.63,0.011,-1.252,0,0
39.47,1,0.005,-0.022,0.025,-0.022,-0.011,0.009,-1.632,0.012,-1.25,0,0
39.57,1,0.005,-0.017,-0.007,-0.005,-0.019,0.005,-1.632,0.012,-1.248,0,0
39.67,1,-0.025,-0.004,0,-0.008,-0.013,-0.001,-1.63,0.011,-1.246,0,0
39.77,1,-0.033,0.005,-0.007,-0.029,0.005,-0.001,-1.629,0.009,-1.244,0,0
39.87,1,-0.016,-0.023,-0.007,-0.016,-0.009,0,-1.627,0.007,-1.242,0,0
39.98,1,0.018,0.006,-0.035,-0.001,-0.007,-0.022,-1.624,0.008,-1.24,0,0
40.07,1,-0.014,-0.013,-0.029,-0.002,-0.008,-0.028,-1.622,0.009,-1.238,0,0
40.17,1,-0.011,-0.001,-0.02,-0.019,-0.008,-0.023,-1.62,0.007,-1.235,0,0
40.28,1,0.032,0.013,-0.016,0.017,-0.002,-0.016,-1.619,0.007,-1.234,0,0
40.38,1,0.003,-0.006,-0.031,0.011,0.004,-0.024,-1.616,0.008,-1.232,0,0
40.48,1,-0.027,0.009,-0.032,-0.007,0.003,-0.034,-1.613,0.007,-1.23,0,0
40.58,1,-0.022,0.007,-0.019,-0.017,0.003,-0.022,-1.614,0.007,-1.228,0,0
40.68,1,0.042,-0.01,-0.013,-0.003,0.005,-0.021,-1.612,0.01,-1.226,0,0
40.78,1,-0.04,-0.003,-0.044,-0.008,-0.004,-0.027,-1.608,0.011,-1.224,0,0
40.88,1,-0.006,-0.018,0.003,-0.011,-0.008,-0.015,-1.607,0.015,-1.222,0,0
40.98,1,-0.026,-0.018,-0.019,-0.01,-0.009,-0.02,-1.607,0.017,-1.219,0,0
41.08,1,-0.074,0.004,-0.03,-0.039,-0.013,-0.019,-1.607,0.016,-1.217,0,0
41.19,1,-0.038,0.002,-0.017,-0.047,-0.006,-0.025,-1.603,0.014,-1.215,0,0
41.28,1,0.02,0.009,-0.005,-0.021,0.01,-0.01,-1.6,0.014,-1.213,0,0
41.38,1,0.024,-0.022,-0.026,0.01,-0.008,-0.017,-1.597,0.019,-1.21,0,0
41.48,1,-0.005,-0.009,0.005,0.003,-0.01,-0.011,-1.594,0.022,-1.208,0,0
41.58,1,-0.021,0.003,0.013,-0.009,-0.006,0.002,-1.595,0.021,-1.207,0,0
41.68,1,-0.026,-0.017,-0.003,-0.014,-0.006,0.007,-1.593,0.021,-1.205,0,0
41.78,1,-0.007,-0.008,0.019,-0.017,-0.011,0.008,-1.595,0.019,-1.203,0,0
41.88,1,-0.007,0.007,0.013,-0.007,-0.004,0.01,-1.595,0.02,-1.2,0,0
41.98,1,-0.012,0.002,0,-0.014,0.005,0.008,-1.595,0.021,-1.198,0,0
42.08,1,-0.015,-0.008,0.015,-0.012,-0.004,0.006,-1.597,0.022,-1.196,0,0
42.19,1,-0.004,0.017,0.023,-0.011,0.004,0.017,-1.599,0.022,-1.194,0,0
42.29,1,0.033,0.029,0.018,-0.002,0.017,0.018,-1.601,0.023,-1.192,0,0
42.38,1,-0.006,0.016,0.021,0.015,0.018,0.022,-1.6,0.022,-1.191,0,0
42.48,1,-0.013,-0.019,0.026,0.002,-0.001,0.022,-1.602,0.018,-1.19,0,0
42.58,1,-0.014,0.033,0.026,-0.008,0.011,0.023,-1.603,0.014,-1.189,0,0
42.68,1,-0.036,0.052,0.009,-0.019,0.037,0.018,-1.606,0.009,-1.188,0,0
42.78,1,-0.027,0.026,0.032,-0.029,0.032,0.021,-1.609,0.009,-1.187,0,0
42.88,1,0.014,0.01,0.007,-0.014,0.019,0.018,-1.61,0.009,-1.186,0,0
42.99,1,-0.027,0.017,0.01,-0.004,0.015,0.014,-1.612,0.008,-1.185,0,0
43.08,1,-0.001,0.009,0.012,-0.02,0.015,0.012,-1.612,0.007,-1.184,0,0
43.18,1,-0.042,0.028,0.007,-0.017,0.02,0.009,-1.61,0.004,-1.183,0,0
43.28,1,0.02,0.016,-0.002,-0.007,0.021,0.005,-1.61,0.004,-1.182,0,0
43.38,1,-0.028,0.009,0.005,-0.006,0.014,0.003,-1.608,0.004,-1.181,0,0
43.49,1,-0.039,-0.01,-0.005,-0.031,0.007,-0.002,-1.608,0.006,-1.179,0,0
43.6,1,-0.022,-0.04,0.001,-0.033,-0.018,0,-1.606,0.008,-1.177,0,0
43.69,1,0.013,-0.019,-0.005,-0.005,-0.026,0,-1.606,0.011,-1.175,0,0
43.99,1,0,-0.01,-0.005,0.003,-0.01,-0.006,-1.606,0.016,-1.168,0,0
44.09,1,-0.017,-0.02,-0.002,-0.007,-0.014,-0.003,-1.605,0.016,-1.166,0,0
44.19,1,-0.027,0.002,-0.012,-0.016,-0.01,-0.008,-1.603,0.018,-1.164,0,0
44.29,1,-0.012,-0.004,0.004,-0.019,-0.006,-0.004,-1.603,0.02,-1.162,0,0
44.39,1,0.036,-0.011,0.009,0.004,-0.002,0.003,-1.602,0.022,-1.16,0,0
44.49,1,-0.035,0.019,-0.012,-0.005,0.002,0.002,-1.6,0.021,-1.158,0,0
44.59,1,0.049,-0.015,0.013,0.014,-0.002,0.002,-1.599,0.021,-1.156,0,0
44.69,1,-0.03,-0.029,0.001,-0.009,-0.009,-0.001,-1.598,0.019,-1.155,0,0
44.79,1,-0.017,0.004,-0.004,-0.006,-0.015,0.002,-1.598,0.022,-1.153,0,0
44.89,1,0.014,-0.006,0.006,-0.004,-0.006,0.002,-1.599,0.021,-1.151,0,0
44.99,1,0.021,-0.014,0.01,0.017,-0.011,0.006,-1.598,0.022,-1.148,0,0
45.09,1,-0.023,0.001,-0.017,0,-0.008,-0.003,-1.598,0.023,-1.146,0,0
45.19,1,-0.029,0.003,0.015,-0.017,-0.001,0.003,-1.598,0.023,-1.144,0,0
45.29,1,0.01,-0.038,-0.009,-0.013,-0.012,0.001,-1.597,0.022,-1.142,0,0
45.4,1,-0.016,-0.027,0.007,-0.003,-0.03,-0.001,-1.596,0.02,-1.14,0,0
45.49,1,-0.018,0.008,-0.025,-0.014,-0.013,-0.007,-1.597,0.019,-1.138,0,0
45.59,1,-0.043,0.001,0.02,-0.024,0.002,-0.001,-1.596,0.021,-1.136,0,0
45.7,1,0.03,-0.027,-0.018,-0.008,-0.014,-0.001,-1.595,0.022,-1.135,0,0
45.79,1,-0.001,-0.011,-0.013,0.007,-0.016,-0.01,-1.593,0.024,-1.133,0,0
45.91,1,-0.046,0.004,-0.007,-0.023,-0.006,-0.008,-1.593,0.023,-1.13,0,0
46,1,0.006,0.001,-0.018,-0.013,0.001,-0.017,-1.591,0.024,-1.129,0,0
46.1,1,-0.002,-0.007,-0.02,-0.009,-0.004,-0.019,-1.589,0.027,-1.126,0,0
46.2,1,-0.023,-0.005,-0.029,-0.011,-0.004,-0.02,-1.587,0.029,-1.124,0,0
46.3,1,-0.052,0.002,-0.024,-0.027,-0.003,-0.022,-1.585,0.032,-1.122,0,0
46.39,1,0.029,-0.026,-0.021,-0.015,-0.011,-0.02,-1.585,0.034,-1.121,0,0
46.49,1,-0.033,0.045,-0.035,-0.012,0.006,-0.032,-1.581,0.031,-1.119,0,0
46.59,1,-0.009,0.021,-0.014,-0.012,0.026,-0.025,-1.58,0.032,-1.117,0,0
46.69,1,-0.017,-0.005,-0.024,-0.022,0.011,-0.021,-1.579,0.028,-1.115,0,0
46.79,1,0.011,-0.022,-0.024,0,-0.005,-0.025,-1.576,0.027,-1.113,0,0
46.89,1,0.01,0.01,-0.03,0.006,-0.003,-0.022,-1.575,0.029,-1.112,0,0
46.99,1,0.002,0,-0.027,0.006,0,-0.03,-1.572,0.03,-1.11,0,0
47.1,1,-0.064,0.025,-0.018,-0.02,0.01,-0.023,-1.57,0.029,-1.109,0,0
47.2,1,-0.017,0.012,-0.011,-0.037,0.016,-0.019,-1.568,0.029,-1.107,0,0
47.3,1,0.016,0.015,0.004,-0.008,0.012,-0.008,-1.565,0.027,-1.106,0,0
47.4,1,0.011,0.025,-0.018,0.009,0.016,-0.009,-1.563,0.025,-1.104,0,0
47.5,1,-0.012,0.012,-0.006,0.003,0.017,-0.006,-1.563,0.025,-1.103,0,0
47.6,1,0.023,0.013,-0.002,0.005,0.014,-0.009,-1.564,0.025,-1.101,0,0
47.7,1,-0.037,0.026,-0.011,-0.004,0.018,-0.007,-1.561,0.022,-1.1,0,0
47.8,1,-0.047,0.017,-0.017,-0.034,0.021,-0.01,-1.561,0.023,-1.099,0,0
47.9,1,0.01,-0.004,0.012,-0.023,0.008,-0.005,-1.562,0.023,-1.097,0,0
48,1,-0.006,0.03,0.021,-0.005,0.016,0.011,-1.564,0.023,-1.096,0,0
48.1,1,0.017,0.021,-0.002,0.005,0.021,0.006,-1.566,0.024,-1.094,0,0
48.2,1,0.041,-0.012,0.005,0.02,0.007,0.006,-1.567,0.025,-1.093,0,0
48.3,1,0.018,0.01,-0.003,0.021,0.002,0.002,-1.569,0.026,-1.091,0,0
48.4,1,-0.027,0.013,0.015,0.007,0.009,0.002,-1.567,0.022,-1.089,0,0
48.5,1,-0.059,0.007,0.014,-0.036,0.014,0.008,-1.567,0.02,-1.087,0,0
48.6,1,0,-0.013,0.037,-0.022,-0.001,0.027,-1.57,0.022,-1.085,0,0
48.7,1,0.042,-0.029,0.005,0.004,-0.013,0.019,-1.571,0.026,-1.083,0,0
48.8,1,-0.014,-0.018,0.027,0.01,-0.021,0.019,-1.573,0.03,-1.08,0,0
48.9,1,-0.014,-0.04,0.009,-0.009,-0.022,0.019,-1.574,0.033,-1.078,0,0
49,1,-0.004,-0.044,0.013,0.002,-0.039,0.011,-1.575,0.036,-1.075,0,0
49.1,1,0.004,-0.049,0.032,0,-0.045,0.022,-1.578,0.041,-1.071,0,0
49.2,1,-0.044,-0.03,0.009,-0.016,-0.042,0.02,-1.58,0.043,-1.067,0,0
49.3,1,-0.024,-0.02,0.031,-0.032,-0.026,0.021,-1.584,0.044,-1.064,0,0
49.4,1,0.019,-0.024,0.02,-0.009,-0.027,0.024,-1.587,0.048,-1.06,0,0
49.51,1,0.004,-0.005,0.011,0.004,-0.016,0.017,-1.587,0.054,-1.056,0,0
49.6,1,0.008,-0.047,0.021,0.011,-0.028,0.018,-1.588,0.054,-1.053,0,0
49.7,1,-0.044,-0.014,0.015,-0.014,-0.028,0.015,-1.588,0.053,-1.051,0,0
49.8,1,-0.074,0,-0.003,-0.054,-0.013,0.007,-1.589,0.052,-1.046,0,0
49.91,1,0.002,-0.006,0.026,-0.038,-0.011,0.014,-1.594,0.053,-1.043,0,0
50,1,0.024,0.013,0.005,0.005,0.004,0.014,-1.591,0.053,-1.041,0,0
50.1,1,-0.031,-0.003,0.008,-0.004,0.003,0.011,-1.593,0.051,-1.038,0,0
50.21,1,-0.005,-0.011,0.021,-0.012,-0.002,0.011,-1.596,0.052,-1.036,0,0
50.31,1,-0.033,0.017,0.001,-0.022,0.003,0.009,-1.597,0.047,-1.034,0,0
50.41,1,0.005,0.029,0.02,-0.005,0.015,0.012,-1.597,0.045,-1.033,0,0
50.51,1,-0.042,0.04,0.018,-0.02,0.031,0.015,-1.599,0.042,-1.031,0,0
50.61,1,0.074,0.012,0.015,0.014,0.024,0.018,-1.6,0.044,-1.029,0,0
50.72,1,-0.013,0.03,-0.003,0.021,0.022,0.006,-1.598,0.042,-1.028,0,0
50.81,1,-0.028,0.041,0.017,-0.014,0.034,0.01,-1.599,0.04,-1.027,0,0
50.91,1,-0.034,0.04,0.008,-0.025,0.038,0.013,-1.601,0.036,-1.027,0,0
51.01,1,-0.003,0.04,0.003,-0.018,0.041,0.007,-1.601,0.034,-1.025,0,0
51.11,1,-0.011,0.058,0.001,-0.008,0.047,0.006,-1.602,0.034,-1.025,0,0
51.21,1,-0.027,0.034,0.026,-0.024,0.043,0.011,-1.603,0.034,-1.024,0,0
51.31,1,-0.003,0.045,0.014,-0.014,0.04,0.019,-1.605,0.031,-1.024,0,0
51.41,1,-0.03,0.036,-0.015,-0.019,0.044,0,-1.605,0.031,-1.023,0,0
51.52,1,0.008,0.048,0.024,-0.009,0.039,0.006,-1.606,0.031,-1.023,0,0
51.61,1,0.03,0.064,-0.007,0.011,0.052,0.006,-1.605,0.031,-1.029,0,0
51.71,1,-0.026,0.039,-0.021,0.001,0.051,-0.008,-1.604,0.028,-1.027,0,0
51.81,1,-0.003,0.037,0.002,-0.011,0.042,-0.008,-1.605,0.026,-1.022,0,0
51.92,1,-0.024,0.065,0.017,-0.014,0.05,0.005,-1.606,0.023,-1.024,0,0
52.01,1,-0.019,0.063,-0.011,-0.022,0.059,0.001,-1.603,0.024,-1.03,0,0
52.11,1,-0.002,0.055,-0.009,-0.01,0.057,-0.007,-1.603,0.019,-1.03,0,0
52.21,1,-0.007,0.03,0.016,-0.003,0.045,0.005,-1.606,0.018,-1.03,0,0
52.31,1,-0.027,0.038,-0.013,-0.013,0.039,-0.002,-1.605,0.024,-1.032,0,0
52.41,1,-0.002,0.022,0.005,-0.011,0.032,-0.004,-1.604,0.03,-1.029,0,0
52.51,1,-0.006,0.034,-0.005,-0.006,0.029,0.002,-1.603,0.026,-1.032,0,0
52.61,1,-0.016,0.028,-0.03,-0.006,0.027,-0.013,-1.599,0.021,-1.034,0,0
52.72,1,0.037,0.013,-0.006,0.002,0.026,-0.019,-1.599,0.022,-1.035,0,0
52.81,1,-0.06,0.061,0.001,-0.014,0.039,-0.003,-1.599,0.024,-1.036,0,0
52.91,1,0.066,0.01,-0.012,0.003,0.035,-0.008,-1.597,0.024,-1.038,0,0
53.01,1,-0.041,0.038,-0.013,0.001,0.033,-0.01,-1.594,0.025,-1.039,0,0
53.12,1,0.007,0.026,0.005,-0.017,0.034,-0.008,-1.593,0.026,-1.041,0,0
53.22,1,0.016,0.027,-0.003,0.018,0.02,0.002,-1.592,0.026,-1.042,0,0
53.32,1,-0.01,0.018,-0.017,-0.005,0.026,-0.01,-1.589,0.024,-1.043,0,0
53.42,1,0.033,0,0.01,0.018,0.01,-0.006,-1.588,0.027,-1.045,0,0
53.51,1,-0.026,0.03,-0.02,0.009,0.02,0.003,-1.586,0.03,-1.047,0,0
53.62,1,-0.063,0.022,-0.012,-0.032,0.026,-0.018,-1.584,0.03,-1.048,0,0
53.72,1,0.031,0.023,-0.002,-0.015,0.017,-0.011,-1.587,0.027,-1.051,0,0
53.83,1,-0.004,0.031,-0.001,0.006,0.022,0.001,-1.588,0.026,-1.053,0,0
53.92,1,0.045,0.015,-0.002,0.011,0.021,-0.004,-1.588,0.029,-1.055,0,0
54.02,1,-0.065,0.059,-0.007,-0.002,0.037,-0.005,-1.589,0.031,-1.057,0,0
54.12,1,0.045,0.023,-0.006,-0.012,0.037,-0.006,-1.585,0.03,-1.059,0,0
54.22,1,-0.141,0.075,-0.026,-0.042,0.047,-0.013,-1.587,0.032,-1.061,0,0
54.32,1,0.039,-0.002,0.003,-0.043,0.039,-0.013,-1.587,0.033,-1.063,0,0
54.42,1,0.05,0.009,-0.005,0.019,0.014,-0.004,-1.585,0.033,-1.065,0,0
54.52,1,0,0.043,-0.026,0.027,0.017,-0.012,-1.582,0.028,-1.068,0,0
54.63,1,0.013,0.031,0.005,0.007,0.034,-0.011,-1.579,0.024,-1.07,0,0
54.72,1,-0.028,0.035,-0.006,0.001,0.034,-0.001,-1.576,0.023,-1.072,0,0
54.82,1,0.024,0.008,0.008,-0.008,0.03,-0.005,-1.572,0.022,-1.075,0,0
54.92,1,-0.062,0.046,-0.007,-0.004,0.022,0.001,-1.571,0.022,-1.077,0,0
55.03,1,-0.019,0.016,-0.004,-0.045,0.033,-0.002,-1.57,0.021,-1.079,0,0
55.12,1,0.066,0.001,0.014,0.019,0.011,-0.002,-1.569,0.021,-1.082,0,0
55.22,1,0.022,0.052,0.03,0.038,0.02,0.023,-1.569,0.02,-1.085,0,0
55.32,1,-0.008,0.07,0.018,-0.003,0.058,0.02,-1.568,0.018,-1.087,0,0
55.42,1,0.043,0.032,0.011,0.037,0.041,0.013,-1.567,0.017,-1.089,0,0
55.52,1,-0.007,0.027,-0.002,0.002,0.039,0.007,-1.567,0.014,-1.091,0,0
55.63,1,0.026,0.018,0.021,0.014,0.026,0.012,-1.565,0.012,-1.094,0,0
55.72,1,-0.046,0.044,-0.021,0.003,0.032,0.002,-1.562,0.005,-1.097,0,0
55.82,1,0.059,-0.038,0.017,0.003,0.006,0.002,-1.56,0.003,-1.099,0,0
55.92,1,-0.028,0.01,0.004,0.019,-0.011,0.003,-1.559,0.001,-1.102,0,0
56.02,1,0.083,0.005,-0.013,0.019,0.008,0,-1.56,-0.002,-1.104,0,0
56.12,1,-0.016,0.041,-0.003,0.026,0.021,-0.006,-1.56,-0.006,-1.107,0,0
56.23,1,-0.005,-0.006,-0.002,-0.005,0.018,-0.003,-1.559,-0.005,-1.109,0,0
56.33,1,-0.022,0.011,-0.004,0.004,0.002,0.004,-1.56,-0.006,-1.111,0,0
56.42,1,0.024,-0.035,0.002,-0.007,-0.002,-0.006,-1.558,-0.008,-1.113,0,0
56.52,1,0.03,-0.027,0.004,0.023,-0.029,0,-1.557,-0.007,-1.115,0,0
56.62,1,0.071,-0.024,0,0.035,-0.023,0.003,-1.557,-0.007,-1.116,0,0
56.72,1,-0.014,-0.025,0.006,0.038,-0.026,0.002,-1.555,-0.005,-1.117,0,0
56.83,1,-0.035,-0.031,-0.005,-0.03,-0.021,-0.01,-1.556,-0.002,-1.118,0,0
56.93,1,0.001,-0.048,0,-0.018,-0.031,0.003,-1.555,0.001,-1.12,0,0
57.03,1,-0.051,-0.034,0.003,-0.009,-0.044,0.003,-1.555,0.002,-1.121,0,0
57.13,1,-0.014,-0.038,-0.023,-0.036,-0.036,-0.009,-1.556,0.006,-1.122,0,0
57.23,1,-0.056,0.041,0.001,-0.028,-0.014,-0.003,-1.555,0.007,-1.123,0,0
57.33,1,0.01,-0.003,-0.019,-0.023,0.011,-0.011,-1.554,0.007,-1.124,0,0
57.43,1,0.013,-0.03,0.011,0.008,-0.013,-0.003,-1.553,0.008,-1.125,0,0
57.53,1,0.057,-0.032,0.008,0.012,-0.017,0,-1.55,0.01,-1.126,0,0
57.63,1,0.064,-0.054,0.016,0.057,-0.042,0.016,-1.55,0.011,-1.128,0,0
57.73,1,-0.049,-0.005,-0.028,0.022,-0.035,-0.008,-1.552,0.01,-1.129,0,0
57.83,1,-0.022,-0.011,0.012,-0.027,-0.013,-0.001,-1.552,0.011,-1.131,0,0
57.93,1,-0.018,-0.012,-0.003,-0.009,-0.018,0.002,-1.552,0.013,-1.132,0,0
58.04,1,-0.07,-0.021,-0.003,-0.05,-0.011,-0.003,-1.554,0.018,-1.132,0,0
58.13,1,0.024,-0.034,0.023,-0.016,-0.026,0.011,-1.555,0.019,-1.134,0,0
58.24,1,-0.023,-0.007,-0.013,-0.02,-0.012,-0.001,-1.554,0.022,-1.134,0,0
58.33,1,-0.003,-0.03,-0.009,-0.006,-0.022,-0.004,-1.552,0.025,-1.135,0,0
58.43,1,-0.092,0.005,0,-0.034,-0.016,0,-1.552,0.023,-1.137,0,0
58.53,1,-0.021,-0.026,0.022,-0.052,-0.014,0.003,-1.556,0.022,-1.138,0,0
58.63,1,0.003,0.001,0.031,-0.017,-0.006,0.021,-1.56,0.026,-1.138,0,0
58.74,1,0.143,-0.002,0.003,0.058,-0.004,0.016,-1.559,0.029,-1.139,0,0
58.83,1,0.144,-0.053,0.01,0.114,-0.027,0.013,-1.553,0.032,-1.139,0,0
58.93,1,0.011,-0.041,0.002,0.07,-0.037,0.006,-1.553,0.038,-1.14,0,0
59.03,1,-0.013,0.004,0.005,0.031,-0.021,0,-1.556,0.039,-1.141,0,0
59.13,1,-0.124,0.037,-0.029,-0.055,0.01,-0.006,-1.559,0.041,-1.141,0,0
59.24,1,-0.039,0.012,-0.018,-0.052,0.011,-0.012,-1.562,0.04,-1.142,0,0
59.33,1,-0.041,0.02,-0.004,-0.054,0.017,-0.016,-1.559,0.036,-1.143,0,0
59.43,1,-0.011,-0.007,-0.001,-0.03,0.008,-0.004,-1.561,0.034,-1.143,0,0
59.53,1,-0.029,0.002,-0.003,-0.024,0.002,-0.004,-1.561,0.036,-1.144,0,0
59.63,1,0.013,-0.036,-0.008,-0.018,-0.013,-0.005,-1.56,0.034,-1.145,0,0
59.74,1,-0.072,0.019,0.001,-0.023,-0.006,-0.002,-1.558,0.034,-1.146,0,0
59.85,1,0.031,0,0.011,-0.012,0.002,-0.002,-1.558,0.034,-1.147,0,0
59.94,1,-0.055,0.008,0.001,-0.017,0.003,0.011,-1.559,0.036,-1.148,0,0
60.04,1,-0.051,-0.012,-0.016,-0.062,0.002,-0.012,-1.56,0.04,-1.148,0,0
60.14,1,-0.025,-0.001,-0.012,-0.032,-0.005,-0.008,-1.561,0.045,-1.149,0,0
60.24,1,-0.092,0.017,-0.012,-0.046,0.001,-0.01,-1.562,0.044,-1.15,0,0
60.34,1,-0.014,-0.018,0.012,-0.044,-0.002,0.001,-1.561,0.042,-1.151,0,0
60.44,1,-0.055,0.03,-0.022,-0.048,0.008,-0.005,-1.559,0.04,-1.153,0,0
60.54,1,-0.032,0.026,0.004,-0.049,0.022,-0.013,-1.56,0.034,-1.154,0,0
60.64,1,-0.017,0.026,-0.011,-0.02,0.023,-0.002,-1.563,0.036,-1.155,0,0
60.74,1,-0.013,0.013,-0.018,-0.025,0.027,-0.017,-1.561,0.037,-1.156,0,0
60.84,1,0.025,-0.025,0.005,0.011,-0.008,-0.002,-1.559,0.037,-1.157,0,0
60.94,1,-0.066,0.004,-0.002,-0.031,-0.001,-0.004,-1.56,0.035,-1.158,0,0
61.04,1,-0.014,0.028,-0.01,-0.026,0.008,-0.002,-1.562,0.03,-1.16,0,0
61.14,1,-0.012,0.025,0.01,-0.028,0.023,0,-1.559,0.027,-1.162,0,0
61.25,1,-0.021,-0.002,-0.004,-0.01,0.012,0.001,-1.558,0.028,-1.163,0,0
61.36,1,-0.042,0,-0.009,-0.022,0.004,-0.007,-1.559,0.029,-1.164,0,0
61.44,1,0.014,0,-0.015,-0.026,0.004,-0.007,-1.558,0.026,-1.165,0,0
61.54,1,-0.097,0.025,-0.017,-0.051,0.016,-0.019,-1.557,0.023,-1.166,0,0
61.64,1,0.068,-0.017,0.014,0.007,-0.003,-0.002,-1.558,0.02,-1.168,0,0
61.74,1,-0.087,0.026,-0.02,-0.04,0.012,-0.006,-1.56,0.017,-1.169,0,0
61.85,1,0.071,-0.04,0.022,0.002,-0.009,0.002,-1.56,0.015,-1.17,0,0
61.94,1,0.036,-0.02,-0.002,0.048,-0.027,0.009,-1.558,0.016,-1.171,0,0
62.04,1,-0.026,0.001,-0.02,0.002,-0.01,-0.008,-1.558,0.017,-1.172,0,0
62.14,1,0.018,-0.025,-0.014,0.012,-0.017,-0.013,-1.558,0.018,-1.173,0,0
62.24,1,-0.05,0.004,-0.02,-0.015,-0.009,-0.014,-1.556,0.024,-1.173,0,0
62.34,1,-0.013,-0.029,0,-0.02,-0.014,-0.01,-1.555,0.025,-1.172,0,0
62.44,1,-0.012,-0.024,-0.004,-0.017,-0.019,-0.008,-1.555,0.026,-1.173,0,0
62.55,1,0.017,-0.018,-0.005,-0.005,-0.021,-0.006,-1.554,0.028,-1.174,0,0
62.64,1,0.051,-0.032,-0.014,0.027,-0.024,-0.012,-1.552,0.028,-1.175,0,0
62.74,1,-0.047,0,-0.001,-0.007,-0.012,0.001,-1.551,0.028,-1.176,0,0
62.84,1,0.007,-0.022,0.012,-0.006,-0.016,-0.003,-1.553,0.028,-1.176,0,0
62.94,1,-0.062,-0.002,-0.011,-0.019,-0.018,0.001,-1.554,0.028,-1.177,0,0
63.06,1,0.053,-0.032,-0.005,-0.009,-0.015,-0.004,-1.554,0.026,-1.177,0,0
63.16,1,-0.017,0.022,-0.001,0.009,-0.009,-0.005,-1.554,0.026,-1.178,0,0
63.25,1,-0.015,-0.004,-0.016,-0.018,0.005,-0.01,-1.555,0.028,-1.178,0,0
63.35,1,0.025,-0.009,-0.008,0.007,-0.004,-0.003,-1.555,0.031,-1.179,0,0
63.45,1,-0.058,0.001,-0.023,-0.019,-0.002,-0.016,-1.554,0.031,-1.179,0,0
63.55,1,-0.038,-0.016,-0.001,-0.033,-0.008,-0.014,-1.556,0.031,-1.179,0,0
63.65,1,-0.031,0.023,-0.033,-0.031,0.001,-0.016,-1.554,0.029,-1.181,0,0
63.75,1,-0.013,0.007,-0.014,-0.024,0.008,-0.017,-1.553,0.025,-1.182,0,0
63.95,1,0.024,-0.018,-0.004,-0.018,-0.005,0,-1.555,0.024,-1.184,0,0
64.05,1,0.047,-0.004,0.007,0.021,-0.007,0.003,-1.554,0.025,-1.185,0,0
64.15,1,-0.053,0.014,-0.012,-0.004,0.005,-0.002,-1.552,0.02,-1.185,0,0
64.26,1,-0.003,-0.02,-0.008,-0.005,-0.01,-0.007,-1.551,0.018,-1.185,0,0
64.35,1,-0.062,0.006,-0.005,-0.032,0,-0.011,-1.55,0.017,-1.186,0,0
64.45,1,-0.034,-0.006,0.017,-0.04,0,0.004,-1.549,0.017,-1.187,0,0
64.55,1,0.051,-0.033,0.006,0.003,-0.019,0.007,-1.55,0.02,-1.188,0,0
64.65,1,0.01,-0.021,0.007,0.012,-0.023,0.01,-1.551,0.02,-1.189,0,0
64.75,1,0,0.019,-0.022,0.007,-0.005,-0.002,-1.55,0.02,-1.19,0,0
64.85,1,-0.006,0.025,0.005,0.006,0.009,-0.007,-1.547,0.018,-1.191,0,0
64.96,1,0.043,-0.039,-0.01,0.003,0.001,-0.003,-1.547,0.019,-1.191,0,0
65.05,1,-0.032,-0.002,-0.003,0.008,-0.013,-0.007,-1.547,0.02,-1.192,0,0
65.15,1,-0.01,-0.018,-0.024,-0.007,-0.016,-0.012,-1.547,0.023,-1.192,0,0
65.25,1,-0.017,-0.011,0.021,-0.027,-0.007,-0.001,-1.546,0.024,-1.193,0,0
65.35,1,0.017,0.002,-0.002,0.012,-0.011,0.002,-1.545,0.024,-1.194,0,0
65.46,1,-0.089,0.02,0.009,-0.039,0.009,0,-1.546,0.021,-1.194,0,0
65.56,1,-0.004,-0.027,-0.003,-0.032,-0.007,0.004,-1.546,0.022,-1.195,0,0
65.65,1,-0.009,-0.003,0.011,-0.015,-0.013,0.009,-1.547,0.024,-1.196,0,0
65.75,1,-0.025,0.019,0.003,-0.02,0.006,0.005,-1.545,0.021,-1.196,0,0
65.85,1,0.039,0.003,0.021,0.006,0.007,0.015,-1.546,0.019,-1.197,0,0
65.96,1,-0.032,0.023,-0.013,-0.003,0.014,0,-1.543,0.017,-1.197,0,0
66.06,1,0.039,-0.006,0.007,0.009,0.009,0.003,-1.543,0.019,-1.198,0,0
66.16,1,-0.05,0.025,-0.003,-0.01,0.01,0.003,-1.544,0.021,-1.199,0,0
66.26,1,0.011,0.001,0.002,-0.018,0.011,-0.004,-1.542,0.02,-1.201,0,0
66.35,1,-0.008,0.038,0.015,0.005,0.013,0.008,-1.543,0.016,-1.203,0,0
66.46,1,-0.014,0.046,0.007,-0.013,0.039,0.012,-1.545,0.011,-1.204,0,0
66.56,1,0.042,0,-0.008,0.008,0.025,0.002,-1.546,0.01,-1.207,0,0
66.66,1,-0.056,0.069,-0.006,0,0.031,0,-1.549,0.004,-1.209,0,0
66.77,1,-0.022,0.048,0.009,-0.036,0.052,-0.005,-1.549,0,-1.212,0,0
66.87,1,0.014,0.028,0.003,-0.013,0.044,0.005,-1.552,-0.003,-1.215,0,0
66.97,1,-0.027,0.054,-0.016,-0.001,0.041,-0.003,-1.553,-0.004,-1.216,0,0
67.06,1,-0.022,0.042,0.006,-0.021,0.043,-0.004,-1.554,-0.009,-1.219,0,0
67.16,1,0,0.016,-0.015,-0.01,0.033,-0.009,-1.555,-0.013,-1.222,0,0
67.26,1,-0.034,0.022,-0.006,-0.018,0.022,-0.005,-1.553,-0.018,-1.224,0,0
67.36,1,0.017,0.002,0.002,-0.009,0.02,-0.005,-1.552,-0.024,-1.226,0,0
67.47,1,0.008,-0.008,-0.029,0.016,-0.004,-0.008,-1.552,-0.028,-1.228,0,0
67.56,1,-0.044,0.01,0.003,-0.015,0.005,-0.015,-1.554,-0.028,-1.23,0,0
67.66,1,-0.047,-0.009,-0.027,-0.045,0.009,-0.015,-1.555,-0.029,-1.232,0,0
67.76,1,0.03,0.003,-0.01,-0.008,-0.007,-0.015,-1.557,-0.027,-1.234,0,0
67.86,1,-0.048,-0.009,-0.018,-0.018,-0.001,-0.016,-1.555,-0.027,-1.235,0,0
67.97,1,0.042,-0.041,-0.01,-0.003,-0.02,-0.012,-1.553,-0.023,-1.236,0,0
68.06,1,0,-0.011,-0.003,0.017,-0.026,-0.008,-1.55,-0.023,-1.238,0,0
68.16,1,-0.091,0.011,-0.02,-0.03,-0.003,-0.009,-1.549,-0.023,-1.239,0,0
68.26,1,0.002,-0.038,0.007,-0.026,-0.02,-0.006,-1.551,-0.021,-1.24,0,0
68.36,1,-0.062,-0.016,0.01,-0.031,-0.018,0.002,-1.552,-0.02,-1.24,0,0
68.47,1,-0.046,-0.007,-0.019,-0.055,-0.007,-0.006,-1.553,-0.022,-1.241,0,0
68.57,1,0.019,-0.075,-0.019,-0.024,-0.042,-0.012,-1.551,-0.018,-1.241,0,0
68.67,1,-0.03,-0.039,0.004,-0.017,-0.048,-0.009,-1.551,-0.013,-1.241,0,0
68.76,1,-0.035,-0.038,0.011,-0.035,-0.04,0.005,-1.552,-0.007,-1.24,0,0
68.86,1,0.066,-0.057,0.01,0.006,-0.053,0.006,-1.55,-0.004,-1.24,0,0
68.97,1,0.029,-0.077,-0.013,0.034,-0.059,-0.001,-1.548,-0.001,-1.239,0,0
69.06,1,0.002,-0.04,0.015,0.012,-0.062,-0.004,-1.55,0.002,-1.238,0,0
69.17,1,-0.016,-0.024,-0.002,0.007,-0.036,0.012,-1.553,0.009,-1.237,0,0
69.26,1,-0.041,-0.064,-0.023,-0.021,-0.041,-0.012,-1.553,0.011,-1.236,0,0
69.36,1,0.016,-0.058,-0.005,-0.012,-0.058,-0.011,-1.553,0.01,-1.236,0,0
69.46,1,0.024,-0.021,-0.004,0.009,-0.042,-0.01,-1.553,0.013,-1.235,0,0
69.57,1,-0.038,-0.023,-0.022,-0.004,-0.026,-0.009,-1.552,0.019,-1.234,0,0
69.68,1,0.009,-0.072,0.015,-0.007,-0.046,-0.003,-1.551,0.025,-1.234,0,0
69.78,1,-0.007,-0.05,-0.021,0.003,-0.056,-0.005,-1.55,0.03,-1.233,0,0
69.88,1,-0.07,0,-0.003,-0.038,-0.031,-0.008,-1.548,0.032,-1.232,0,0
69.97,1,0.048,-0.011,-0.006,-0.012,-0.012,-0.005,-1.548,0.028,-1.232,0,0
70.07,1,0.063,-0.026,0.009,0.046,-0.022,-0.001,-1.547,0.026,-1.231,0,0
70.17,1,0.04,-0.031,-0.001,0.045,-0.026,-0.001,-1.546,0.032,-1.23,0,0
70.27,1,-0.059,0.001,-0.023,0,-0.018,-0.01,-1.546,0.033,-1.229,0,0
70.38,1,-0.024,-0.055,-0.007,-0.029,-0.026,-0.009,-1.547,0.037,-1.229,0,0
70.47,1,-0.043,0.016,0.006,-0.032,-0.018,-0.002,-1.549,0.037,-1.228,0,0
70.57,1,-0.026,0.014,-0.005,-0.032,0.009,-0.001,-1.549,0.036,-1.228,0,0
70.67,1,-0.029,-0.026,-0.001,-0.018,-0.003,-0.004,-1.55,0.037,-1.227,0,0
70.77,1,0.038,-0.044,-0.002,-0.002,-0.035,-0.002,-1.552,0.041,-1.226,0,0
70.87,1,0.015,0.028,0.02,0.011,-0.013,0.007,-1.552,0.039,-1.225,0,0
70.98,1,0.026,0.009,-0.024,0.015,0.015,-0.003,-1.549,0.037,-1.225,0,0
71.08,1,0.052,-0.018,-0.003,0.034,-0.006,-0.006,-1.547,0.033,-1.225,0,0
71.17,1,-0.03,0,-0.005,0.018,-0.003,-0.006,-1.547,0.034,-1.224,0,0
71.27,1,-0.066,-0.008,-0.038,-0.028,-0.005,-0.015,-1.547,0.036,-1.224,0,0
71.37,1,-0.079,-0.013,0.021,-0.062,-0.01,-0.007,-1.547,0.035,-1.224,0,0
71.47,1,-0.059,0.013,-0.013,-0.069,-0.003,-0.004,-1.546,0.034,-1.223,0,0
71.58,1,0.015,-0.011,0.014,-0.031,-0.002,0.001,-1.551,0.035,-1.223,0,0
71.67,1,0.034,-0.004,-0.007,0.007,-0.003,0.001,-1.55,0.035,-1.222,0,0
71.77,1,-0.017,0.013,-0.024,0.008,0,-0.013,-1.548,0.036,-1.222,0,0
71.87,1,0.002,0.003,0.005,-0.001,0.007,-0.006,-1.548,0.034,-1.222,0,0
71.97,1,-0.038,-0.009,-0.025,-0.017,0.001,-0.008,-1.547,0.034,-1.222,0,0
72.09,1,-0.051,-0.02,-0.006,-0.035,-0.013,-0.012,-1.547,0.035,-1.222,0,0
72.17,1,0,0.012,0.001,-0.031,-0.002,-0.01,-1.548,0.034,-1.221,0,0
72.28,1,0.013,0.014,0.002,0.006,0.007,0.002,-1.548,0.032,-1.221,0,0
72.37,1,0.005,0.001,-0.016,-0.004,0.009,-0.013,-1.548,0.03,-1.221,0,0
72.47,1,-0.012,0.018,0.015,-0.004,0.01,0.004,-1.55,0.027,-1.222,0,0
72.57,1,0.004,0.007,0.002,0,0.009,0.004,-1.549,0.027,-1.221,0,0
72.67,1,0.007,0.006,-0.015,0.003,0.006,-0.003,-1.549,0.027,-1.221,0,0
72.79,1,-0.032,0.006,-0.012,-0.004,0.008,-0.012,-1.55,0.028,-1.221,0,0
72.88,1,-0.039,-0.02,0.009,-0.033,-0.003,-0.005,-1.551,0.028,-1.221,0,0
72.98,1,0.036,-0.006,0.018,-0.008,-0.01,0.01,-1.552,0.025,-1.222,0,0
73.08,1,0.008,0.018,-0.014,0.01,0.001,0.005,-1.55,0.025,-1.222,0,0
73.18,1,0.029,0.004,-0.004,0.021,0.006,-0.005,-1.549,0.026,-1.222,0,0
73.28,1,0.008,0.007,-0.014,0.017,0.008,-0.007,-1.549,0.026,-1.222,0,0
73.39,1,-0.007,-0.009,-0.007,0.007,0.003,-0.009,-1.548,0.025,-1.222,0,0
73.49,1,-0.036,0,-0.012,-0.021,-0.002,-0.011,-1.547,0.028,-1.222,0,0
73.58,1,-0.029,0.012,0.006,-0.024,0.004,-0.002,-1.55,0.03,-1.222,0,0
73.68,1,-0.022,0.015,0.007,-0.026,0.01,-0.001,-1.552,0.033,-1.222,0,0
73.88,1,-0.048,0.003,0.001,-0.032,0.001,-0.008,-1.556,0.035,-1.222,0,0
73.98,1,-0.015,-0.006,0.001,-0.034,-0.001,-0.001,-1.557,0.033,-1.222,0,0
74.08,1,0.02,0.016,-0.009,-0.007,0.004,-0.005,-1.555,0.029,-1.224,0,0
74.18,1,0.061,0.007,-0.016,0.025,0.007,-0.005,-1.554,0.03,-1.224,0,0
74.28,1,0,0,-0.02,0.028,0.005,-0.017,-1.551,0.028,-1.224,0,0
74.38,1,0.003,-0.019,0.022,0.008,-0.01,-0.001,-1.553,0.027,-1.223,0,0
74.49,1,0.018,-0.004,0.006,0.015,-0.009,0.009,-1.552,0.024,-1.224,0,0
74.58,1,-0.036,0.05,0.003,-0.005,0.013,0.006,-1.554,0.025,-1.224,0,0
74.69,1,-0.034,0.022,0.015,-0.03,0.033,0.004,-1.556,0.026,-1.224,0,0
74.78,1,-0.02,-0.018,0.01,-0.021,0.008,0.017,-1.556,0.027,-1.224,0,0
74.88,1,0.02,-0.011,0.017,-0.008,-0.004,0.011,-1.558,0.03,-1.224,0,0
74.98,1,-0.036,0.016,-0.002,-0.006,0,0.013,-1.558,0.032,-1.224,0,0
75.08,1,-0.023,0.026,0.019,-0.023,0.008,0.004,-1.558,0.033,-1.224,0,0
75.18,1,0.001,0.009,0.007,-0.017,0.016,0.008,-1.559,0.032,-1.224,0,0
75.28,1,-0.057,-0.002,0.005,-0.025,0.009,0.01,-1.56,0.031,-1.224,0,0
75.38,1,-0.003,-0.006,0.015,-0.024,-0.002,0.01,-1.561,0.033,-1.224,0,0
75.48,1,-0.038,0.027,-0.006,-0.027,0.01,0.003,-1.563,0.036,-1.224,0,0
75.58,1,0.017,0.005,0.026,-0.005,0.009,0.012,-1.564,0.035,-1.224,0,0
75.69,1,0.003,-0.022,0,0,-0.003,0.01,-1.563,0.038,-1.224,0,0
75.78,1,-0.008,0.012,0.012,-0.003,-0.005,0.006,-1.564,0.037,-1.225,0,0
75.89,1,-0.035,0.054,0.008,-0.022,0.031,0.011,-1.566,0.029,-1.226,0,0
75.99,1,0.013,0.026,0.007,-0.004,0.038,0.009,-1.565,0.025,-1.226,0,0
76.09,1,-0.034,0.005,-0.024,-0.011,0.015,-0.009,-1.564,0.023,-1.227,0,0
76.19,1,-0.015,0.011,0.019,-0.023,0.01,0.003,-1.567,0.021,-1.227,0,0
76.29,1,-0.036,0.001,0.006,-0.036,0.014,0.002,-1.568,0.021,-1.228,0,0
76.39,1,0.011,-0.022,0.006,-0.017,-0.009,0.011,-1.567,0.019,-1.228,0,0
76.49,1,-0.005,0.01,-0.003,0.009,-0.009,0.006,-1.567,0.019,-1.228,0,0
76.59,1,-0.03,0.028,-0.004,-0.021,0.016,-0.003,-1.566,0.019,-1.228,0,0
76.69,1,0.002,-0.018,0.01,-0.001,0.005,0.004,-1.565,0.017,-1.229,0,0
76.79,1,-0.006,-0.009,0.005,-0.006,-0.007,0.006,-1.566,0.019,-1.229,0,0
76.89,1,0.032,-0.003,0.014,0.012,-0.007,0.01,-1.567,0.021,-1.229,0,0
76.99,1,-0.02,0.002,-0.016,0.003,-0.001,0.001,-1.567,0.022,-1.229,0,0
77.09,1,-0.014,-0.03,0.011,-0.015,-0.012,-0.003,-1.567,0.025,-1.229,0,0
77.19,1,0.018,-0.049,-0.01,0.003,-0.037,0.001,-1.566,0.026,-1.229,0,0
77.29,1,-0.02,-0.011,0.006,-0.007,-0.027,0.001,-1.566,0.026,-1.229,0,0
77.39,1,-0.034,0.011,0,-0.016,-0.007,-0.003,-1.564,0.024,-1.229,0,0
77.49,1,0.002,0.004,-0.006,-0.022,0.006,0,-1.564,0.024,-1.229,0,0
77.59,1,-0.009,-0.008,-0.01,-0.004,-0.003,-0.006,-1.562,0.023,-1.229,0,0
77.69,1,0.026,-0.019,-0.003,0.011,-0.012,-0.007,-1.56,0.024,-1.229,0,0
77.79,1,0.018,-0.011,-0.022,0.014,-0.014,-0.013,-1.558,0.026,-1.229,0,0
77.89,1,-0.019,0.003,-0.019,0.002,-0.003,-0.016,-1.556,0.027,-1.229,0,0
77.99,1,0.016,-0.072,-0.021,0.004,-0.033,-0.019,-1.555,0.027,-1.229,0,0
78.09,1,-0.032,0.003,0,-0.009,-0.026,-0.01,-1.553,0.022,-1.229,0,0
78.19,1,-0.065,0.009,-0.02,-0.033,-0.003,-0.013,-1.552,0.019,-1.23,0,0
78.3,1,-0.026,-0.039,0.009,-0.041,-0.015,-0.006,-1.556,0.021,-1.226,0,0
78.4,1,-0.002,-0.028,0.002,-0.026,-0.027,0.003,-1.56,0.025,-1.221,0,0
78.49,1,-0.009,-0.031,-0.003,-0.016,-0.03,-0.006,-1.557,0.026,-1.221,0,0
78.59,1,0.031,-0.01,-0.002,0.007,-0.02,0.003,-1.554,0.024,-1.227,0,0
78.7,1,0.014,-0.001,-0.006,0.02,-0.013,-0.005,-1.552,0.024,-1.227,0,0
78.79,1,-0.003,0.013,0.015,0.007,0.002,0.004,-1.551,0.025,-1.226,0,0
78.89,1,-0.026,-0.01,0.009,-0.009,0.002,0.009,-1.551,0.024,-1.226,0,0
79,1,-0.002,-0.021,-0.013,-0.006,-0.009,0.001,-1.549,0.028,-1.226,0,0
79.09,1,-0.015,-0.011,-0.01,-0.011,-0.014,-0.008,-1.549,0.03,-1.226,0,0
79.2,1,-0.016,0.008,-0.007,-0.014,-0.002,-0.014,-1.549,0.031,-1.226,0,0
79.3,1,-0.011,-0.003,-0.011,-0.016,-0.003,-0.008,-1.549,0.032,-1.226,0,0
80.29,1,-0.064,-0.032,-0.005,-0.029,-0.007,-0.004,-1.549,0.025,-1.229,0,0
88.27,1,-0.06,0.021,0.005,-0.058,-0.017,-0.004,-1.552,0.024,-1.233,0,0
88.27,1,-0.044,0.065,0.014,-0.05,0.033,0.007,-1.554,0.026,-1.234,0,0
88.27,1,-0.044,0.065,0.014,-0.046,0.054,0.011,-1.554,0.026,-1.234,0,0
88.27,1,-0.044,0.065,0.014,-0.045,0.061,0.013,-1.554,0.026,-1.234,0,0
88.28,1,-0.044,0.065,0.014,-0.044,0.064,0.013,-1.554,0.026,-1.234,0,0
88.28,1,-0.044,0.065,0.014,-0.044,0.065,0.013,-1.554,0.026,-1.234,0,0
88.28,1,-0.044,0.065,0.014,-0.044,0.065,0.013,-1.554,0.026,-1.234,0,0
88.28,1,-0.044,0.065,0.014,-0.044,0.065,0.014,-1.554,0.026,-1.234,0,0
88.28,1,-0.044,0.065,0.014,-0.044,0.065,0.014,-1.554,0.026,-1.234,0,0
88.28,1,-0.044,0.065,0.014,-0.044,0.065,0.014,-1.554,0.026,-1.234,0,0
88.28,1,-0.044,0.065,0.014,-0.044,0.065,0.014,-1.554,0.026,-1.234,0,0
88.28,1,-0.044,0.065,0.014,-0.044,0.065,0.014,-1.554,0.026,-1.234,0,0
88.28,1,-0.044,0.065,0.014,-0.044,0.065,0.014,-1.554,0.026,-1.234,0,0
88.28,1,-0.044,0.065,0.014,-0.044,0.065,0.014,-1.554,0.026,-1.234,0,0
88.28,1,-0.044,0.065,0.014,-0.044,0.065,0.014,-1.554,0.026,-1.234,0,0
88.29,1,-0.044,0.065,0.014,-0.044,0.065,0.014,-1.554,0.026,-1.234,0,0
88.29,1,-0.044,0.065,0.014,-0.044,0.065,0.014,-1.554,0.026,-1.234,0,0
88.29,1,-0.044,0.065,0.014,-0.044,0.065,0.014,-1.554,0.026,-1.234,0,0
88.29,1,-0.034,0.058,0.006,-0.043,0.065,0.013,-1.554,0.026,-1.234,0,0
88.29,1,0.057,-0.006,-0.058,0.002,0.033,-0.019,-1.554,0.027,-1.234,0,0
88.29,1,0.015,-0.006,-0.033,0.026,0.008,-0.037,-1.554,0.027,-1.234,0,0
88.29,1,-0.026,-0.006,-0.009,-0.003,-0.001,-0.022,-1.554,0.027,-1.234,0,0
88.29,1,-0.026,-0.006,-0.009,-0.018,-0.004,-0.014,-1.554,0.027,-1.234,0,0
88.29,1,-0.026,-0.006,-0.009,-0.023,-0.005,-0.011,-1.554,0.027,-1.234,0,0
88.43,1,0.026,0.018,0.018,-0.011,0.001,-0.001,-1.553,0.027,-1.234,0,0
88.47,1,0.043,0.032,0.014,0.03,0.021,0.014,-1.552,0.027,-1.235,0,0
88.56,1,0.013,0.02,0.001,0.026,0.025,0.009,-1.552,0.026,-1.235,0,0
88.66,1,-0.03,-0.005,-0.003,-0.001,0.013,-0.005,-1.557,0.024,-1.235,0,0
88.77,1,-0.043,0.024,0.022,-0.039,0.013,0.008,-1.561,0.026,-1.235,0,0
88.87,1,-0.037,0.034,-0.005,-0.031,0.021,0.009,-1.56,0.027,-1.236,0,0
88.97,1,-0.069,0.011,0.017,-0.044,0.021,0.007,-1.561,0.026,-1.236,0,0
89.07,1,-0.007,0.007,0.008,-0.031,0.009,0.013,-1.565,0.027,-1.236,0,0
89.17,1,-0.013,0.014,-0.001,-0.019,0.016,0.005,-1.566,0.025,-1.236,0,0
89.27,1,-0.007,0.019,0.005,-0.013,0.015,0.004,-1.57,0.025,-1.236,0,0
89.37,1,0.005,-0.019,-0.002,-0.011,0.004,0.002,-1.571,0.025,-1.236,0,0
89.48,1,-0.003,-0.008,-0.002,-0.003,-0.007,-0.001,-1.571,0.025,-1.236,0,0
89.57,1,-0.001,0.024,0.008,0.004,0.002,0.003,-1.571,0.027,-1.235,0,0
89.67,1,0.042,-0.024,-0.002,0.019,0.001,0,-1.569,0.025,-1.235,0,0
89.77,1,-0.026,-0.02,-0.013,0.009,-0.019,-0.005,-1.567,0.03,-1.235,0,0
89.87,1,-0.054,0.027,0.008,-0.023,0.001,-0.001,-1.568,0.028,-1.236,0,0
89.98,1,-0.092,0.033,-0.009,-0.067,0.021,-0.003,-1.57,0.027,-1.236,0,0
90.07,1,-0.004,-0.016,0.009,-0.048,0.011,0.002,-1.57,0.026,-1.236,0,0
90.18,1,-0.001,0.016,0.015,-0.016,0.006,0.007,-1.571,0.028,-1.236,0,0
90.28,1,-0.024,0.06,-0.008,-0.009,0.025,0.005,-1.57,0.027,-1.237,0,0
90.37,1,0.026,0.03,0.021,-0.002,0.039,0.002,-1.572,0.025,-1.238,0,0
90.47,1,0.019,0.014,-0.017,0.008,0.03,0.001,-1.574,0.022,-1.238,0,0
90.57,1,-0.044,0.001,-0.003,-0.014,0.015,-0.003,-1.575,0.019,-1.239,0,0
90.67,1,-0.081,0.032,-0.017,-0.042,0.02,-0.01,-1.576,0.02,-1.239,0,0
90.77,1,-0.034,0.016,0,-0.057,0.015,-0.006,-1.577,0.022,-1.239,0,0
91.18,1,0.026,-0.004,-0.001,0.021,-0.008,0,-1.572,0.024,-1.241,0,0
91.27,1,-0.017,0.013,-0.01,0.009,-0.002,-0.005,-1.571,0.024,-1.241,0,0
91.38,1,-0.048,0.003,-0.019,-0.021,0.01,-0.008,-1.57,0.022,-1.241,0,0
91.48,1,-0.062,0.005,-0.012,-0.045,0.003,-0.016,-1.571,0.023,-1.241,0,0
91.57,1,-0.068,-0.007,-0.004,-0.063,0.003,-0.01,-1.573,0.024,-1.241,0,0
91.67,1,-0.007,0.001,0.006,-0.04,-0.002,0.003,-1.574,0.022,-1.241,0,0
91.77,1,0.054,-0.017,-0.004,-0.006,-0.006,-0.003,-1.573,0.022,-1.242,0,0
91.87,1,0.011,0.024,-0.023,0.032,-0.001,-0.01,-1.573,0.021,-1.242,0,0
91.97,1,0.029,0.018,0.016,0.023,0.016,-0.005,-1.572,0.02,-1.243,0,0
92.08,1,-0.005,-0.008,-0.013,0.006,0.009,0,-1.573,0.021,-1.244,0,0
92.18,1,-0.008,0,-0.005,0.007,-0.002,-0.008,-1.573,0.02,-1.244,0,0
92.28,1,-0.028,-0.007,-0.021,-0.017,-0.005,-0.01,-1.572,0.017,-1.244,0,0
92.38,1,0.02,0.005,0.001,0.007,-0.001,-0.011,-1.569,0.015,-1.244,0,0
92.48,1,0.012,-0.012,-0.025,0.004,-0.001,-0.014,-1.568,0.018,-1.244,0,0
92.58,1,0.019,-0.037,-0.007,0.014,-0.02,-0.014,-1.567,0.02,-1.244,0,0
92.69,1,-0.004,-0.001,-0.021,0.005,-0.016,-0.015,-1.567,0.021,-1.243,0,0
92.78,1,-0.035,-0.015,0.007,-0.013,-0.011,-0.001,-1.567,0.023,-1.243,0,0
92.88,1,-0.027,-0.012,0.001,-0.024,-0.014,-0.002,-1.567,0.023,-1.243,0,0
92.98,1,-0.01,0.009,-0.007,-0.02,-0.006,-0.004,-1.566,0.024,-1.243,0,0
93.08,1,-0.032,-0.001,-0.011,-0.021,0.002,-0.003,-1.565,0.025,-1.243,0,0
93.19,1,-0.042,0.001,0.01,-0.035,-0.001,-0.003,-1.565,0.023,-1.243,0,0
93.28,1,-0.014,0.011,0,-0.031,0.005,0,-1.566,0.022,-1.244,0,0
93.38,1,0.001,-0.003,0.008,-0.004,0.002,0.008,-1.567,0.023,-1.244,0,0
93.48,1,-0.003,-0.014,-0.006,-0.008,-0.002,-0.003,-1.567,0.023,-1.244,0,0
93.59,1,-0.015,0.026,0,-0.01,0.003,-0.001,-1.566,0.023,-1.245,0,0
93.68,1,0.022,0.04,0.001,0.001,0.025,0.001,-1.566,0.022,-1.245,0,0
93.79,1,-0.014,0.009,0.008,0.002,0.026,0.001,-1.565,0.025,-1.245,0,0
93.89,1,-0.001,-0.023,0.003,-0.003,0,0.006,-1.565,0.027,-1.245,0,0
93.98,1,-0.026,-0.024,0.006,-0.012,-0.012,0.003,-1.563,0.028,-1.245,0,0
94.08,1,-0.007,-0.007,0.009,-0.016,-0.015,0.01,-1.562,0.029,-1.245,0,0
94.18,1,0.026,-0.02,0.018,0,-0.014,0.008,-1.562,0.029,-1.246,0,0
94.29,1,-0.073,0.01,-0.01,-0.014,-0.007,0.007,-1.563,0.03,-1.245,0,0
94.39,1,0.001,0.001,0.018,-0.03,0,0.008,-1.565,0.029,-1.245,0,0
94.48,1,0.006,0.012,-0.001,-0.001,0.006,0.009,-1.565,0.03,-1.245,0,0
94.58,1,-0.008,0.007,-0.007,-0.006,0.007,-0.002,-1.564,0.029,-1.245,0,0
94.68,1,-0.042,0.002,0.02,-0.025,0.004,0.009,-1.564,0.03,-1.244,0,0
94.79,1,0.019,-0.004,0.024,0.002,-0.002,0.014,-1.563,0.032,-1.244,0,0
94.88,1,-0.007,0.015,0,-0.003,0.009,0.008,-1.562,0.034,-1.244,0,0
94.99,1,-0.034,0.024,-0.004,-0.026,0.017,0.001,-1.561,0.032,-1.244,0,0
95.08,1,-0.009,0.005,0.003,-0.01,0.01,0.005,-1.561,0.031,-1.244,0,0
95.18,1,-0.021,0.008,0.001,-0.014,0.006,0.003,-1.562,0.031,-1.244,0,0
95.29,1,0.026,-0.007,0.03,-0.01,0.006,0.014,-1.562,0.031,-1.244,0,0
95.39,1,0.053,0.001,0.011,0.031,-0.004,0.011,-1.56,0.031,-1.244,0,0
95.49,1,-0.008,0.013,-0.011,0.022,0.005,0.01,-1.56,0.032,-1.244,0,0
95.6,1,-0.042,0.043,0.011,-0.016,0.024,0,-1.561,0.029,-1.244,0,0
95.69,1,-0.007,0.006,0.026,-0.022,0.025,0.016,-1.561,0.027,-1.244,0,0
95.79,1,-0.018,-0.009,0.005,-0.009,0.002,0.011,-1.561,0.027,-1.244,0,0
95.89,1,-0.04,-0.006,-0.011,-0.027,-0.011,0.002,-1.562,0.029,-1.244,0,0
96,1,0.006,-0.005,0.01,-0.018,0,0.003,-1.564,0.03,-1.244,0,0
96.09,1,0.029,-0.004,0.007,0.005,-0.003,0.008,-1.564,0.029,-1.244,0,0
96.19,1,0.013,0.008,-0.008,0.016,0.003,0,-1.564,0.026,-1.243,0,0
96.29,1,0.007,-0.003,0.004,0.005,0.009,0.002,-1.566,0.027,-1.243,0,0
96.39,1,0.024,-0.009,0.009,0.015,-0.009,0.002,-1.566,0.024,-1.243,0,0
96.49,1,-0.056,0.029,-0.001,-0.003,0.01,0,-1.565,0.024,-1.244,0,0
96.59,1,-0.064,-0.005,-0.008,-0.039,0.007,0,-1.564,0.026,-1.244,0,0
96.69,1,-0.03,-0.044,0.004,-0.044,-0.016,0.001,-1.564,0.026,-1.244,0,0
96.8,1,0.034,0.022,0.015,-0.01,-0.012,0.006,-1.563,0.023,-1.245,0,0
96.9,1,-0.021,0.053,0.001,-0.011,0.028,0.002,-1.56,0.019,-1.245,0,0
96.99,1,-0.02,-0.008,0.005,-0.007,0.016,0.006,-1.561,0.022,-1.245,0,0
97.09,1,-0.015,0,0,-0.004,-0.003,0.003,-1.563,0.023,-1.246,0,0
97.19,1,-0.023,0.026,-0.001,-0.031,0.017,0.001,-1.566,0.02,-1.246,0,0
97.3,1,-0.001,-0.011,-0.011,-0.014,0.01,-0.004,-1.567,0.019,-1.246,0,0
97.4,1,-0.001,-0.017,-0.004,-0.005,-0.011,-0.005,-1.566,0.021,-1.246,0,0
97.49,1,-0.037,0.003,-0.006,-0.015,-0.012,-0.003,-1.566,0.022,-1.246,0,0
97.59,1,-0.001,0.012,-0.002,-0.015,0.008,-0.005,-1.566,0.023,-1.247,0,0
97.69,1,0.028,-0.007,0.007,0.011,0.004,-0.004,-1.566,0.022,-1.247,0,0
97.79,1,0,0.015,-0.013,0.007,0.008,0,-1.567,0.024,-1.247,0,0
97.89,1,0.003,0,-0.002,-0.006,0.009,-0.01,-1.566,0.024,-1.247,0,0
98.01,1,-0.061,0.021,-0.016,-0.021,0.009,-0.007,-1.569,0.025,-1.247,0,0
98.09,1,-0.034,0.017,-0.016,-0.04,0.015,-0.008,-1.568,0.029,-1.247,0,0
98.19,1,-0.022,0.002,-0.013,-0.026,0.009,-0.013,-1.567,0.029,-1.247,0,0
98.3,1,-0.004,0.014,0.003,-0.019,0.008,-0.007,-1.569,0.027,-1.248,0,0
98.4,1,-0.01,0.005,-0.008,-0.005,0.007,-0.006,-1.567,0.028,-1.248,0,0
98.5,1,0.008,-0.009,-0.016,-0.009,0.003,-0.011,-1.567,0.027,-1.248,0,0
98.61,1,-0.017,0.006,-0.008,-0.002,-0.001,-0.009,-1.566,0.026,-1.248,0,0
98.71,1,0.03,-0.002,0.014,0.006,0,-0.001,-1.564,0.025,-1.249,0,0
98.8,1,-0.011,0.033,-0.023,0.009,0.012,-0.003,-1.561,0.026,-1.249,0,0
98.9,1,0.03,-0.02,-0.009,0.006,0.007,-0.013,-1.561,0.028,-1.249,0,0
99,1,-0.06,-0.002,0.027,-0.006,-0.008,0.003,-1.561,0.027,-1.249,0,0
99.1,1,-0.035,0.028,-0.003,-0.046,0.012,0.003,-1.563,0.027,-1.249,0,0
99.2,1,-0.038,0.019,0.002,-0.026,0.019,0.006,-1.566,0.025,-1.249,0,0
99.3,1,0.002,0.004,0.006,-0.016,0.01,0.005,-1.566,0.022,-1.249,0,0
99.4,1,-0.004,0.014,0.01,-0.013,0.013,0.007,-1.569,0.019,-1.25,0,0
99.5,1,-0.015,0,-0.006,-0.015,0.008,-0.003,-1.569,0.017,-1.25,0,0
99.6,1,0.007,-0.01,0.004,0.001,-0.004,0.004,-1.569,0.014,-1.251,0,0
99.7,1,0.003,0.028,-0.013,-0.006,0.011,-0.004,-1.568,0.01,-1.251,0,0
99.81,1,-0.008,0.006,-0.002,-0.001,0.013,-0.002,-1.567,0.009,-1.252,0,0
99.91,1,0.016,-0.008,0.01,0.002,0.003,0.002,-1.568,0.011,-1.252,0,0
100,1,-0.032,0.02,-0.006,0,0.004,0.004,-1.566,0.01,-1.253,0,0
100.1,1,0.004,-0.01,0.016,-0.008,0.001,0.007,-1.566,0.009,-1.253,0,0
100.2,1,-0.043,-0.019,0.006,-0.021,-0.008,0.004,-1.567,0.01,-1.253,0,0
100.3,1,-0.03,0.001,0.005,-0.025,-0.009,0.007,-1.568,0.01,-1.254,0,0
100.4,1,-0.015,-0.002,0.001,-0.029,0,0,-1.567,0.011,-1.254,0,0
100.5,1,-0.032,-0.017,0.004,-0.025,-0.008,0.007,-1.567,0.012,-1.254,0,0
100.61,1,0.018,-0.023,-0.008,-0.014,-0.014,-0.001,-1.567,0.015,-1.254,0,0
100.7,1,0.005,-0.005,-0.006,0.004,-0.016,-0.003,-1.568,0.015,-1.254,0,0
100.9,1,0.002,0.018,0.003,-0.014,0.007,0.012,-1.569,0.017,-1.254,0,0
101.01,1,0.008,-0.015,0.001,0.007,0.001,0.008,-1.568,0.018,-1.254,0,0
101.1,1,-0.009,-0.009,0.001,0,-0.008,0.005,-1.567,0.019,-1.254,0,0
101.2,1,-0.026,-0.001,0.001,-0.018,-0.003,0.003,-1.567,0.019,-1.255,0,0
101.3,1,0.016,0.008,0.007,-0.005,0.003,0.002,-1.569,0.019,-1.255,0,0
101.41,1,-0.019,0.026,0.01,-0.006,0.01,0.008,-1.57,0.019,-1.255,0,0
101.51,1,0.036,-0.018,0.005,0.012,0.004,0.008,-1.57,0.02,-1.255,0,0
101.61,1,0,0.011,-0.007,0.011,0,0.003,-1.57,0.022,-1.255,0,0
101.71,1,-0.042,-0.011,0.008,-0.002,-0.001,0.003,-1.57,0.021,-1.255,0,0
101.81,1,-0.036,0.001,0.01,-0.043,0.001,-0.003,-1.573,0.022,-1.255,0,0
101.91,1,-0.024,-0.005,-0.003,-0.015,0.002,0.007,-1.574,0.024,-1.255,0,0
102.01,1,-0.046,0.031,-0.01,-0.049,0.016,-0.005,-1.574,0.027,-1.255,0,0
102.11,1,0.016,-0.011,-0.013,-0.017,0.004,-0.005,-1.573,0.024,-1.255,0,0
102.21,1,0.048,-0.033,-0.008,0.011,-0.021,-0.013,-1.572,0.029,-1.255,0,0
102.32,1,-0.08,0.017,0,-0.004,-0.008,-0.006,-1.571,0.03,-1.254,0,0
102.41,1,-0.033,-0.001,-0.019,-0.046,0.007,-0.008,-1.571,0.031,-1.255,0,0
102.51,1,-0.008,0.004,-0.008,-0.023,-0.004,-0.011,-1.572,0.032,-1.255,0,0
102.61,1,-0.084,0.043,-0.027,-0.042,0.018,-0.017,-1.573,0.034,-1.255,0,0
102.72,1,0.03,-0.013,0.019,-0.025,0.013,-0.004,-1.573,0.032,-1.255,0,0
102.81,1,0,-0.006,-0.027,0.007,-0.003,-0.005,-1.574,0.032,-1.255,0,0
102.91,1,-0.019,0.012,-0.006,-0.013,0.005,-0.014,-1.572,0.031,-1.255,0,0
103.01,1,0.009,0.01,-0.018,-0.001,0.003,-0.009,-1.575,0.029,-1.255,0,0
103.11,1,-0.022,0.004,-0.012,-0.015,0.009,-0.015,-1.574,0.024,-1.255,0,0
103.21,1,0.015,-0.011,-0.011,0.003,0.001,-0.008,-1.573,0.022,-1.255,0,0
103.31,1,0.027,-0.024,0.01,0.008,-0.011,-0.011,-1.573,0.024,-1.255,0,0
103.41,1,0.022,-0.018,-0.009,0.032,-0.027,0.003,-1.573,0.027,-1.255,0,0
103.52,1,-0.049,-0.006,-0.008,-0.022,-0.006,-0.008,-1.573,0.029,-1.254,0,0
103.61,1,0.022,-0.035,0.01,0.006,-0.022,-0.001,-1.57,0.028,-1.254,0,0
103.71,1,-0.088,-0.001,-0.006,-0.04,-0.008,-0.001,-1.57,0.026,-1.253,0,0
103.81,1,-0.009,-0.05,0.005,-0.03,-0.032,-0.003,-1.573,0.025,-1.253,0,0
103.91,1,0.053,0.011,-0.021,0.001,-0.02,-0.002,-1.569,0.025,-1.253,0,0
104.01,1,-0.011,0.05,-0.011,0.011,0.023,-0.007,-1.566,0.027,-1.253,0,0
104.11,1,-0.099,0.009,-0.031,-0.044,0.026,-0.028,-1.566,0.032,-1.252,0,0
104.21,1,-0.027,-0.001,-0.008,-0.044,-0.002,-0.017,-1.563,0.037,-1.252,0,0
104.32,1,-0.009,0.036,0.005,-0.031,0.021,-0.005,-1.561,0.04,-1.252,0,0
104.41,1,-0.113,-0.002,0.017,-0.073,0.021,0.005,-1.562,0.045,-1.25,0,0
104.53,1,0.069,-0.056,0.002,-0.008,-0.026,0.01,-1.562,0.044,-1.25,0,0
104.61,1,-0.027,0.006,0.019,0.011,-0.018,0.01,-1.561,0.039,-1.25,0,0
104.72,1,0.079,-0.012,-0.009,0.025,-0.01,0.003,-1.561,0.037,-1.25,0,0
104.82,1,-0.012,0.013,-0.013,0.031,-0.006,-0.002,-1.563,0.036,-1.25,0,0
104.92,1,-0.075,0.056,-0.018,-0.036,0.03,-0.01,-1.562,0.032,-1.25,0,0
105.02,1,-0.004,-0.007,0.005,-0.031,0.02,-0.003,-1.563,0.033,-1.249,0,0
105.12,1,0,0.004,-0.008,0,0.002,-0.005,-1.563,0.032,-1.249,0,0
105.22,1,-0.049,0.042,-0.014,-0.028,0.024,-0.015,-1.563,0.033,-1.249,0,0
105.32,1,-0.028,-0.009,-0.017,-0.027,0.007,-0.013,-1.562,0.039,-1.249,0,0
105.42,1,-0.091,0.036,0.011,-0.063,0.024,-0.006,-1.561,0.044,-1.249,0,0
105.52,1,0.015,0.002,0.003,-0.032,0.014,0,-1.563,0.048,-1.249,0,0
105.62,1,-0.002,-0.006,-0.017,-0.023,0.004,0,-1.564,0.049,-1.248,0,0
105.72,1,-0.026,0.029,0.003,-0.018,0.018,-0.004,-1.562,0.049,-1.248,0,0
105.82,1,0.016,0.017,0.003,-0.002,0.018,0.001,-1.562,0.05,-1.248,0,0
105.92,1,0.022,0.004,0.002,0.014,0.01,0.003,-1.563,0.05,-1.248,0,0
106.02,1,0.017,0.02,-0.029,0.025,0.008,-0.011,-1.566,0.047,-1.247,0,0
106.12,1,-0.026,0.015,-0.023,-0.006,0.021,-0.024,-1.566,0.045,-1.247,0,0
106.22,1,0.005,0.003,-0.009,0,0.008,-0.014,-1.566,0.044,-1.247,0,0
106.33,1,-0.054,0.034,-0.006,-0.028,0.02,-0.011,-1.565,0.042,-1.246,0,0
106.43,1,-0.001,-0.019,-0.017,-0.023,0.01,-0.012,-1.564,0.044,-1.246,0,0
