Timestamp (seconds),system activated, Acceleration in X (Gs),Acceleration in Y (Gs), Altitude (meters),Acceleration in X filtered by KF (Gs),Acceleration in Y filtered by KF (Gs),Acceleration in Z filtered by KF (Gs),Roll (degrees),Pitch (degrees),Yaw (degrees),Event type,level
7.04,1,0.046,0.007,0.019,0.016,-0.002,0.018,-1.522,0.012,0.012,0,0
7.14,1,0.052,-0.016,0.027,0.037,-0.005,0.018,-1.52,0.014,0.011,0,0
7.24,1,0.015,-0.016,0.026,0.038,-0.009,0.024,-1.523,0.014,0.011,0,0
7.34,1,-0.014,-0.017,0.04,0.012,-0.016,0.032,-1.525,0.012,0.011,0,0
7.44,1,-0.007,-0.01,0.015,-0.002,-0.006,0.028,-1.525,0.012,0.012,0,0
7.54,1,0.007,-0.026,0.027,0,-0.024,0.022,-1.527,0.019,0.013,0,0
7.64,1,-0.006,-0.021,0.016,-0.002,-0.023,0.022,-1.528,0.018,0.013,0,0
7.74,1,-0.009,-0.063,0.032,-0.006,-0.037,0.021,-1.528,0.016,0.014,0,0
7.85,1,-0.01,-0.047,0.023,-0.008,-0.044,0.027,-1.527,0.016,0.016,0,0
7.95,1,0.015,-0.043,0.02,0.001,-0.047,0.024,-1.526,0.017,0.017,0,0
8.04,1,-0.028,-0.025,0.012,-0.006,-0.042,0.018,-1.528,0.018,0.018,0,0
8.14,1,-0.016,-0.029,0.008,-0.015,-0.031,0.011,-1.529,0.023,0.019,0,0
8.24,1,0.014,-0.006,0.016,-0.009,-0.012,0.016,-1.531,0.022,0.02,0,0
8.34,1,0.026,0.009,0.015,0.013,-0.013,0.013,-1.531,0.019,0.021,0,0
8.44,1,0.036,0.003,0.011,0.029,0.004,0.014,-1.531,0.018,0.022,0,0
8.54,1,-0.061,-0.005,-0.03,-0.002,0.003,-0.004,-1.531,0.024,0.022,0,0
8.64,1,0.015,0.02,0.014,-0.007,0.008,-0.004,-1.532,0.025,0.022,0,0
8.74,1,-0.029,-0.032,0.014,-0.016,-0.001,0.015,-1.535,0.026,0.022,0,0
8.85,1,-0.032,0,0.022,-0.03,-0.015,0.008,-1.535,0.029,0.023,0,0
8.94,1,0.037,-0.043,0.025,-0.004,-0.025,0.021,-1.538,0.032,0.024,0,0
9.05,1,0.05,0,-0.028,0.032,-0.02,0,-1.535,0.032,0.025,0,0
9.14,1,-0.025,0.019,-0.014,0.012,0.005,-0.013,-1.533,0.03,0.024,0,0
9.24,1,-0.063,0.041,0.003,-0.029,0.021,-0.008,-1.534,0.028,0.024,0,0
9.34,1,-0.009,0.016,0.008,-0.032,0.021,0.004,-1.535,0.026,0.024,0,0
9.44,1,0.019,0.04,-0.015,-0.002,0.029,-0.002,-1.533,0.024,0.024,0,0
9.55,1,0.018,0.01,-0.021,0.012,0.025,-0.018,-1.529,0.022,0.024,0,0
9.65,1,0.033,-0.003,0.009,0.018,0.013,-0.005,-1.529,0.023,0.024,0,0
9.75,1,0.028,-0.02,-0.009,0.028,-0.005,-0.001,-1.527,0.023,0.024,0,0
9.85,1,0.029,-0.005,0,0.026,-0.012,-0.006,-1.523,0.022,0.025,0,0
9.95,1,0.003,-0.029,-0.014,0.021,-0.016,-0.006,-1.52,0.023,0.025,0,0
10.06,1,-0.017,-0.016,-0.021,-0.002,-0.017,-0.017,-1.518,0.025,0.027,0,0
10.15,1,-0.003,-0.005,0.021,-0.005,-0.016,0,-1.518,0.026,0.03,0,0
10.25,1,0.047,0.015,0.005,0.013,0,0.008,-1.516,0.026,0.031,0,0
10.35,1,0.062,0.025,0.008,0.043,0.009,0.002,-1.513,0.024,0.033,0,0
10.45,1,0.038,-0.01,-0.004,0.05,0.009,0.006,-1.511,0.025,0.034,0,0
10.55,1,-0.023,-0.034,0.018,0.013,-0.009,0.005,-1.512,0.029,0.035,0,0
10.65,1,-0.027,-0.028,0.037,-0.014,-0.024,0.022,-1.514,0.032,0.036,0,0
10.76,1,-0.033,-0.013,0.05,-0.021,-0.018,0.036,-1.518,0.035,0.037,0,0
10.86,1,0.045,0.026,0.045,0.004,0.001,0.044,-1.519,0.032,0.038,0,0
10.95,1,0.066,-0.018,0.038,0.039,-0.009,0.044,-1.517,0.03,0.039,0,0
11.05,1,0.043,0.005,0.007,0.049,0.005,0.025,-1.515,0.032,0.04,0,0
11.15,1,0.014,0.023,0.062,0.034,-0.004,0.036,-1.515,0.032,0.041,0,0
11.25,1,0.044,-0.093,0.058,0.029,-0.027,0.051,-1.513,0.03,0.042,0,0
11.35,1,-0.04,0.008,0.018,0.007,-0.028,0.042,-1.511,0.025,0.043,0,0
11.45,1,-0.076,0.005,0.019,-0.035,-0.003,0.019,-1.514,0.022,0.044,0,0
11.56,1,-0.078,0.018,0.079,-0.067,0.007,0.049,-1.518,0.02,0.044,0,0
11.65,1,-0.023,-0.001,0.063,-0.053,0.002,0.064,-1.523,0.022,0.046,0,0
11.75,1,0.014,0.001,0.066,-0.016,0.01,0.062,-1.529,0.022,0.047,0,0
11.85,1,0.056,0.017,0.071,0.025,0.006,0.065,-1.533,0.018,0.048,0,0
11.96,1,0.067,-0.009,0.045,0.037,0.004,0.059,-1.533,0.014,0.048,0,0
12.06,1,0.032,-0.051,0.071,0.053,-0.023,0.062,-1.534,0.017,0.049,0,0
12.15,1,0.02,-0.074,0.035,0.032,-0.051,0.058,-1.535,0.023,0.05,0,0
12.26,1,-0.009,-0.032,0.032,0.016,-0.052,0.036,-1.536,0.022,0.051,0,0
12.36,1,-0.043,-0.022,0.046,-0.015,-0.028,0.041,-1.542,0.018,0.052,0,0
12.46,1,-0.063,-0.008,0.034,-0.04,-0.022,0.04,-1.544,0.013,0.053,0,0
12.56,1,0.015,0.003,0.052,-0.018,-0.006,0.042,-1.548,0.013,0.055,0,0
12.66,1,-0.015,-0.02,0.047,-0.023,-0.01,0.05,-1.554,0.015,0.057,0,0
12.76,1,0.022,-0.02,0.031,0.01,-0.018,0.037,-1.555,0.019,0.058,0,0
12.86,1,0.026,-0.058,0.041,0.014,-0.031,0.042,-1.56,0.022,0.06,0,0
12.96,1,-0.002,-0.011,0.035,0.012,-0.025,0.037,-1.567,0.022,0.062,0,0
13.06,1,-0.005,-0.025,0.014,0.002,-0.032,0.025,-1.568,0.024,0.064,0,0
13.16,1,-0.002,-0.034,0.018,-0.004,-0.026,0.022,-1.569,0.025,0.067,0,0
13.26,1,-0.014,-0.032,0.026,-0.007,-0.036,0.023,-1.573,0.028,0.069,0,0
13.36,1,0,-0.006,0.022,-0.008,-0.016,0.021,-1.575,0.031,0.072,0,0
13.46,1,0.036,-0.011,0.031,0.009,-0.017,0.027,-1.576,0.034,0.075,0,0
13.56,1,0.02,-0.058,0.019,0.025,-0.026,0.025,-1.574,0.034,0.079,0,0
13.66,1,0.017,-0.074,0.029,0.02,-0.057,0.023,-1.574,0.033,0.082,0,0
13.76,1,0.004,-0.036,0.017,0.01,-0.052,0.024,-1.575,0.033,0.085,0,0
13.86,1,0.002,-0.012,0.014,0.012,-0.031,0.018,-1.576,0.039,0.087,0,0
13.96,1,0.022,0.066,0.037,0.01,0.009,0.024,-1.576,0.045,0.09,0,0
14.06,1,-0.011,0.017,0.019,0.007,0.036,0.028,-1.575,0.049,0.093,0,0
14.16,1,-0.033,-0.028,0.01,-0.013,-0.004,0.018,-1.575,0.054,0.096,0,0
14.26,1,-0.004,-0.052,0.032,-0.022,-0.035,0.023,-1.574,0.056,0.098,0,0
14.36,1,0.031,0.072,0.021,0.009,0.011,0.022,-1.573,0.055,0.098,0,0
14.47,1,0.043,0.052,0.013,0.024,0.052,0.018,-1.572,0.056,0.099,0,0
14.56,1,0.028,0.04,0.043,0.036,0.039,0.024,-1.572,0.056,0.1,0,0
14.67,1,0.033,0.011,0.024,0.033,0.031,0.033,-1.569,0.056,0.1,0,0
14.77,1,0.036,0.052,0.029,0.027,0.026,0.029,-1.567,0.056,0.101,0,0
14.87,1,-0.01,-0.009,0.02,0.019,0.02,0.025,-1.567,0.059,0.101,0,0
14.97,1,-0.057,0.023,0.033,-0.021,0.021,0.026,-1.574,0.054,0.101,0,0
15.07,1,-0.034,0.042,0.037,-0.037,0.026,0.032,-1.58,0.05,0.1,0,0
15.17,1,0.01,0.075,0.027,-0.015,0.051,0.032,-1.583,0.04,0.1,0,0
15.27,1,0.018,0.03,0.008,0.008,0.043,0.017,-1.583,0.034,0.1,0,0
15.37,1,-0.008,-0.022,0.016,0.004,0.021,0.017,-1.584,0.031,0.1,0,0
15.47,1,-0.017,-0.031,0.023,-0.009,-0.019,0.022,-1.586,0.03,0.101,0,0
15.57,1,-0.019,-0.011,0.014,-0.017,-0.017,0.018,-1.586,0.03,0.101,0,0
15.67,1,-0.03,-0.011,0.001,-0.021,-0.007,0.011,-1.586,0.03,0.101,0,0
15.77,1,-0.014,-0.013,0.024,-0.018,-0.01,0.011,-1.587,0.03,0.102,0,0
15.87,1,-0.01,-0.023,0.013,-0.014,-0.015,0.017,-1.589,0.029,0.103,0,0
15.97,1,0.022,0.031,0.014,0,0.005,0.015,-1.59,0.027,0.103,0,0
16.07,1,-0.012,0.026,-0.001,0.002,0.014,0.009,-1.589,0.027,0.103,0,0
16.17,1,-0.021,0.008,0.003,-0.012,0.012,0.002,-1.588,0.023,0.103,0,0
16.27,1,-0.044,-0.007,0.013,-0.03,0.006,0.008,-1.589,0.025,0.103,0,0
16.37,1,-0.004,0.021,0.01,-0.02,0.009,0.008,-1.59,0.028,0.103,0,0
16.47,1,0.018,0.023,0.013,-0.001,0.017,0.012,-1.589,0.026,0.102,0,0
16.57,1,-0.005,0.033,0.002,0,0.022,0.01,-1.59,0.023,0.101,0,0
16.67,1,-0.007,0.034,0.011,-0.001,0.03,0.006,-1.59,0.022,0.1,0,0
16.77,1,0,0.014,0.004,-0.002,0.03,0.007,-1.592,0.02,0.099,0,0
16.97,1,0.008,-0.038,-0.009,0.002,-0.015,-0.004,-1.592,0.011,0.097,0,0
17.07,1,-0.024,-0.011,0.01,-0.004,-0.012,0.003,-1.593,0.01,0.096,0,0
17.17,1,-0.006,0.011,-0.01,-0.013,-0.005,-0.004,-1.592,0.01,0.095,0,0
17.28,1,-0.02,0.008,-0.004,-0.018,0.002,-0.005,-1.593,0.009,0.094,0,0
17.38,1,-0.018,-0.006,0.001,-0.015,0.003,-0.005,-1.594,0.005,0.093,0,0
17.48,1,-0.03,0.015,-0.005,-0.025,0.005,-0.005,-1.594,0.002,0.091,0,0
17.58,1,-0.006,0.02,0.003,-0.018,0.014,0.001,-1.594,0.003,0.09,0,0
17.68,1,0.038,0.067,0,0.012,0.038,0.001,-1.596,0.004,0.089,0,0
17.78,1,0.029,0.033,-0.002,0.028,0.046,0.002,-1.595,0.005,0.088,0,0
17.88,1,0.022,0.049,-0.012,0.024,0.035,-0.003,-1.594,0.006,0.087,0,0
17.98,1,-0.04,-0.026,-0.007,-0.004,0.015,-0.009,-1.595,0.006,0.085,0,0
18.08,1,-0.035,0.014,-0.008,-0.024,0.012,-0.01,-1.595,0.006,0.084,0,0
18.18,1,-0.026,0.012,-0.03,-0.031,0.005,-0.014,-1.595,0.006,0.083,0,0
18.28,1,-0.037,0.007,-0.026,-0.027,0.014,-0.028,-1.591,0.004,0.082,0,0
18.38,1,-0.033,0.014,-0.044,-0.035,0.011,-0.029,-1.59,0.002,0.08,0,0
18.48,1,-0.027,0.001,-0.038,-0.031,0.008,-0.038,-1.586,-0.001,0.079,0,0
18.58,1,-0.002,0.022,-0.054,-0.02,0.012,-0.044,-1.582,-0.001,0.078,0,0
18.68,1,-0.02,0.014,-0.035,-0.013,0.017,-0.043,-1.579,-0.002,0.076,0,0
18.78,1,-0.012,0.018,-0.054,-0.019,0.015,-0.047,-1.574,-0.004,0.075,0,0
18.88,1,-0.016,0.01,-0.042,-0.013,0.014,-0.048,-1.569,-0.006,0.074,0,0
18.98,1,0.001,0.018,-0.033,-0.009,0.008,-0.036,-1.567,-0.005,0.072,0,0
19.08,1,-0.012,-0.015,-0.056,-0.007,0.008,-0.046,-1.563,-0.001,0.071,0,0
19.18,1,-0.007,0.017,-0.038,-0.005,0.007,-0.045,-1.564,-0.001,0.07,0,0
19.28,1,-0.012,0.002,-0.043,-0.016,-0.004,-0.042,-1.565,-0.001,0.068,0,0
19.38,1,-0.04,-0.013,-0.02,-0.021,0,-0.033,-1.565,0,0.067,0,0
19.49,1,-0.011,0.01,-0.03,-0.02,0.007,-0.031,-1.565,0,0.066,0,0
19.59,1,0.01,0.023,-0.015,-0.007,0.011,-0.021,-1.564,0.002,0.065,0,0
19.69,1,0.011,0.02,-0.015,0.005,0.015,-0.019,-1.563,0.003,0.063,0,0
19.79,1,-0.053,0.014,-0.008,-0.014,0.021,-0.017,-1.564,0.001,0.062,0,0
19.89,1,-0.062,0.004,0.006,-0.044,0.009,-0.003,-1.565,-0.001,0.061,0,0
19.99,1,-0.05,0.003,0.032,-0.052,0.005,0.013,-1.571,-0.004,0.06,0,0
20.09,1,0.003,0.016,0.04,-0.029,0.012,0.027,-1.575,-0.007,0.059,0,0
20.19,1,0.026,-0.009,0.023,0.001,0.001,0.032,-1.578,-0.008,0.058,0,0
20.29,1,0.026,-0.015,0.042,0.019,-0.003,0.03,-1.581,-0.011,0.057,0,0
20.39,1,0.022,0.001,-0.001,0.02,-0.015,0.025,-1.583,-0.015,0.056,0,0
20.49,1,0.01,-0.022,0.009,0.018,-0.005,0.011,-1.582,-0.017,0.055,0,0
20.6,1,-0.039,-0.031,-0.001,-0.004,-0.027,0.008,-1.583,-0.02,0.055,0,0
20.69,1,-0.104,-0.013,0.004,-0.054,-0.014,0.001,-1.585,-0.024,0.054,0,0
20.79,1,-0.065,0.002,-0.003,-0.075,-0.012,0,-1.587,-0.028,0.054,0,0
20.89,1,-0.012,-0.042,0.016,-0.051,-0.022,0.006,-1.59,-0.032,0.053,0,0
20.99,1,0.052,-0.004,0.017,0.007,-0.015,0.01,-1.592,-0.031,0.053,0,0
21.09,1,0.052,-0.01,-0.002,0.037,-0.011,0.011,-1.591,-0.033,0.052,0,0
21.19,1,-0.01,-0.013,-0.001,0.019,-0.011,-0.001,-1.591,-0.034,0.053,0,0
21.29,1,-0.009,0.004,-0.009,0,-0.005,-0.003,-1.592,-0.031,0.052,0,0
21.39,1,-0.026,-0.006,-0.003,-0.011,-0.005,-0.003,-1.592,-0.031,0.053,0,0
21.49,1,-0.031,-0.008,-0.008,-0.026,-0.007,-0.005,-1.591,-0.033,0.054,0,0
21.59,1,-0.027,-0.032,-0.005,-0.025,-0.017,-0.006,-1.592,-0.032,0.055,0,0
21.7,1,0.011,-0.017,0.001,-0.013,-0.019,-0.004,-1.592,-0.031,0.056,0,0
21.8,1,0.002,-0.043,0.001,0,-0.032,0.001,-1.593,-0.031,0.058,0,0
21.9,1,0.006,-0.055,-0.014,0.005,-0.041,-0.007,-1.592,-0.031,0.06,0,0
22,1,-0.025,-0.037,-0.017,-0.01,-0.043,-0.011,-1.591,-0.028,0.062,0,0
22.09,1,-0.048,-0.057,-0.003,-0.028,-0.047,-0.01,-1.591,-0.025,0.065,0,0
22.19,1,-0.04,-0.034,-0.012,-0.04,-0.041,-0.01,-1.591,-0.023,0.067,0,0
22.3,1,-0.018,-0.039,-0.013,-0.032,-0.046,-0.011,-1.591,-0.021,0.071,0,0
22.4,1,0.001,-0.061,-0.009,-0.011,-0.042,-0.011,-1.591,-0.019,0.074,0,0
22.5,1,-0.001,-0.05,-0.002,-0.007,-0.054,-0.009,-1.591,-0.019,0.078,0,0
22.6,1,-0.019,-0.064,0,-0.009,-0.056,0,-1.59,-0.016,0.083,0,0
22.7,1,-0.012,-0.056,-0.001,-0.011,-0.057,-0.004,-1.59,-0.01,0.088,0,0
22.8,1,-0.014,-0.06,-0.021,-0.016,-0.065,-0.007,-1.589,-0.006,0.092,0,0
22.9,1,-0.005,-0.081,0.006,-0.012,-0.063,-0.006,-1.588,-0.003,0.098,0,0
23,1,-0.043,-0.046,-0.011,-0.016,-0.057,-0.005,-1.587,0,0.103,0,0
23.1,1,-0.02,-0.049,-0.007,-0.024,-0.056,-0.009,-1.587,0.006,0.108,0,0
23.2,1,-0.04,-0.056,-0.015,-0.035,-0.059,-0.006,-1.588,0.011,0.113,0,0
23.3,1,-0.035,-0.048,-0.021,-0.033,-0.052,-0.018,-1.587,0.01,0.117,0,0
23.4,1,-0.02,-0.013,-0.003,-0.029,-0.035,-0.011,-1.589,0.01,0.121,0,0
23.5,1,-0.03,-0.051,-0.01,-0.028,-0.034,-0.009,-1.59,0.01,0.126,0,0
23.6,1,-0.025,-0.015,-0.01,-0.028,-0.028,-0.009,-1.59,0.01,0.131,0,0
23.7,1,0.027,-0.002,0.004,-0.006,-0.02,-0.005,-1.588,0.007,0.135,0,0
23.8,1,0.03,-0.015,-0.013,0.019,-0.016,-0.007,-1.588,0.01,0.139,0,0
23.9,1,0.032,-0.025,0.002,0.029,-0.008,-0.004,-1.588,0.017,0.144,0,0
24,1,-0.1,0.018,-0.059,-0.026,-0.013,-0.025,-1.588,0.02,0.148,0,0
24.11,1,-0.15,-0.005,-0.016,-0.096,0,-0.035,-1.591,0.024,0.152,0,0
24.2,1,-0.091,0.006,0.001,-0.105,0.002,-0.007,-1.596,0.025,0.155,0,0
24.3,1,-0.064,0.025,-0.042,-0.081,0.01,-0.023,-1.595,0.019,0.156,0,0
24.4,1,-0.054,0.053,-0.001,-0.07,0.036,-0.021,-1.596,0.015,0.157,0,0
24.5,1,0.065,0.093,0.018,-0.009,0.059,0.006,-1.597,0.008,0.157,0,0
24.6,1,0.053,0.139,-0.016,0.032,0.099,-0.004,-1.595,0.002,0.157,0,0
24.71,1,0.01,0.096,0.007,0.031,0.105,-0.001,-1.593,0.002,0.155,0,0
24.81,1,-0.008,0.122,0.001,0.006,0.117,0.001,-1.592,0.006,0.154,0,0
24.91,1,0.003,0.083,-0.001,0,0.102,0.002,-1.592,0.005,0.153,0,0
25.01,1,0.001,0.061,-0.006,0.006,0.083,-0.006,-1.591,0.001,0.151,0,0
25.11,1,-0.032,0.084,-0.019,-0.009,0.074,-0.01,-1.59,-0.003,0.148,0,0
25.21,1,-0.031,0.077,0.004,-0.028,0.081,-0.005,-1.592,-0.007,0.146,0,0
25.31,1,-0.007,0.079,0.012,-0.019,0.08,0.005,-1.593,-0.009,0.144,0,0
25.41,1,0.007,0.064,-0.017,-0.006,0.068,-0.003,-1.591,-0.017,0.141,0,0
25.51,1,-0.022,0.069,-0.004,-0.009,0.068,-0.007,-1.591,-0.022,0.138,0,0
25.61,1,-0.07,0.089,0.004,-0.035,0.075,-0.001,-1.593,-0.027,0.134,0,0
25.71,1,-0.055,0.079,0.016,-0.054,0.081,0.006,-1.594,-0.033,0.131,0,0
25.81,1,-0.044,0.09,0.001,-0.045,0.087,0.006,-1.596,-0.04,0.127,0,0
25.91,1,0.06,0.063,0.033,-0.007,0.077,0.015,-1.597,-0.045,0.124,0,0
26.02,1,0.001,0.12,-0.029,0.007,0.097,0.008,-1.597,-0.051,0.119,0,0
26.11,1,0.032,0.15,-0.011,0.023,0.122,-0.019,-1.598,-0.051,0.113,0,0
26.21,1,-0.016,0.078,0.039,0.003,0.102,0.014,-1.598,-0.05,0.106,0,0
26.31,1,0.002,0.108,-0.004,-0.001,0.1,0.007,-1.594,-0.055,0.099,0,0
26.41,1,-0.016,0.173,-0.018,-0.002,0.136,-0.004,-1.592,-0.056,0.092,0,0
26.51,1,-0.062,0.149,0.002,-0.027,0.149,-0.006,-1.592,-0.063,0.086,0,0
26.61,1,-0.068,0.096,0.025,-0.055,0.129,0.008,-1.596,-0.069,0.079,0,0
26.71,1,-0.006,0.053,0.014,-0.043,0.092,0.018,-1.599,-0.075,0.073,0,0
26.81,1,0.078,0.031,0.013,0.017,0.053,0.009,-1.598,-0.077,0.067,0,0
27.01,1,0.017,0.039,0.037,0.01,0.022,0.024,-1.598,-0.077,0.058,0,0
27.12,1,-0.014,0.044,0.014,0.009,0.029,0.027,-1.598,-0.077,0.056,0,0
27.22,1,-0.02,0.016,0.014,-0.015,0.032,0.018,-1.598,-0.076,0.053,0,0
27.32,1,-0.011,-0.053,0.041,-0.009,0.001,0.024,-1.597,-0.076,0.051,0,0
27.42,1,-0.015,-0.06,0.019,-0.014,-0.043,0.028,-1.597,-0.078,0.048,0,0
27.52,1,0.042,-0.007,0.044,0.008,-0.037,0.031,-1.597,-0.081,0.045,0,0
27.62,1,0.001,0.001,0.044,0.019,-0.014,0.041,-1.596,-0.081,0.042,0,0
27.72,1,-0.031,-0.027,0.012,-0.007,-0.01,0.029,-1.597,-0.076,0.041,0,0
27.83,1,-0.018,-0.01,0.047,-0.016,-0.016,0.034,-1.603,-0.067,0.039,0,0
27.92,1,-0.03,-0.012,-0.002,-0.027,-0.01,0.021,-1.605,-0.067,0.038,0,0
28.02,1,-0.022,-0.007,0.036,-0.027,-0.011,0.022,-1.608,-0.066,0.037,0,0
28.12,1,-0.006,-0.024,0.025,-0.016,-0.015,0.028,-1.611,-0.062,0.036,0,0
28.22,1,-0.012,-0.036,0.028,-0.009,-0.021,0.025,-1.613,-0.058,0.035,0,0
28.32,1,0.012,-0.011,0.03,-0.006,-0.029,0.028,-1.615,-0.057,0.034,0,0
28.42,1,0.05,-0.027,0.046,0.024,-0.018,0.037,-1.616,-0.058,0.034,0,0
28.52,1,0.034,-0.032,0.015,0.036,-0.026,0.028,-1.618,-0.058,0.033,0,0
28.62,1,-0.007,-0.017,0.039,0.017,-0.03,0.031,-1.622,-0.056,0.032,0,0
28.72,1,-0.009,-0.018,0.031,0.001,-0.019,0.033,-1.626,-0.058,0.031,0,0
28.82,1,-0.048,-0.036,0.039,-0.023,-0.024,0.034,-1.629,-0.059,0.03,0,0
28.92,1,-0.024,-0.007,0.052,-0.027,-0.021,0.043,-1.631,-0.06,0.03,0,0
29.03,1,-0.019,0.011,0.019,-0.023,-0.007,0.036,-1.634,-0.056,0.029,0,0
29.13,1,-0.013,-0.016,0.037,-0.019,-0.004,0.032,-1.639,-0.052,0.029,0,0
29.22,1,0.007,-0.028,0.042,-0.004,-0.019,0.038,-1.644,-0.048,0.028,0,0
29.32,1,-0.006,-0.029,0.012,-0.008,-0.022,0.028,-1.647,-0.048,0.028,0,0
29.44,1,0.015,-0.04,0.046,-0.001,-0.031,0.032,-1.65,-0.045,0.029,0,0
29.53,1,0.06,-0.058,0.035,0.034,-0.048,0.038,-1.653,-0.039,0.03,0,0
29.63,1,0.019,-0.06,0.009,0.04,-0.051,0.025,-1.652,-0.035,0.032,0,0
29.73,1,-0.073,-0.065,0.001,-0.013,-0.059,0.008,-1.652,-0.028,0.035,0,0
29.83,1,-0.076,-0.059,0.033,-0.058,-0.062,0.02,-1.656,-0.022,0.038,0,0
29.93,1,0.007,-0.029,0.026,-0.037,-0.048,0.027,-1.658,-0.015,0.041,0,0
30.03,1,0.032,-0.062,0.013,0.003,-0.051,0.019,-1.658,-0.01,0.045,0,0
30.13,1,0.014,-0.047,0.004,0.015,-0.048,0.015,-1.658,-0.006,0.048,0,0
30.23,1,-0.023,-0.053,0.006,0,-0.047,0.004,-1.659,-0.001,0.052,0,0
30.33,1,-0.009,-0.058,0.026,-0.012,-0.054,0.014,-1.661,0.003,0.055,0,0
30.44,1,0.004,-0.02,0.007,-0.005,-0.042,0.016,-1.662,0.005,0.058,0,0
30.53,1,0.006,-0.025,-0.007,0.007,-0.03,0.004,-1.661,0.009,0.06,0,0
30.63,1,0.001,-0.029,-0.01,0.002,-0.031,-0.005,-1.66,0.012,0.063,0,0
30.73,1,0.003,0.013,-0.025,0.002,-0.013,-0.014,-1.658,0.013,0.066,0,0
30.83,1,0.004,0.025,-0.004,0.005,0.013,-0.014,-1.656,0.008,0.067,0,0
30.93,1,-0.025,0.004,-0.021,-0.007,0.015,-0.014,-1.657,0.005,0.069,0,0
31.03,1,-0.008,0.008,0,-0.019,0.001,-0.009,-1.657,0.004,0.069,0,0
31.13,1,0.015,0.004,-0.014,0,0.004,-0.007,-1.656,0.003,0.07,0,0
31.23,1,0.014,-0.011,-0.006,0.01,0.003,-0.01,-1.655,0.003,0.071,0,0
31.33,1,-0.008,-0.006,-0.01,0.004,-0.008,-0.007,-1.655,0.003,0.073,0,0
31.43,1,-0.011,0.01,-0.005,-0.006,0.001,-0.01,-1.655,0.003,0.074,0,0
31.53,1,-0.022,0.006,-0.004,-0.01,0.004,-0.005,-1.652,0,0.075,0,0
31.63,1,-0.028,0.029,-0.017,-0.022,0.014,-0.01,-1.649,-0.004,0.076,0,0
31.73,1,-0.029,0.013,-0.015,-0.027,0.017,-0.014,-1.648,-0.007,0.076,0,0
31.84,1,-0.041,0.007,-0.005,-0.033,0.013,-0.01,-1.648,-0.009,0.077,0,0
31.93,1,-0.012,0.008,0.013,-0.027,0.011,0.002,-1.649,-0.01,0.078,0,0
32.03,1,0.016,0.025,-0.016,-0.003,0.017,-0.003,-1.648,-0.015,0.078,0,0
32.13,1,0.017,0.054,-0.024,0.009,0.032,-0.017,-1.645,-0.023,0.078,0,0
32.24,1,-0.056,0.032,-0.005,-0.015,0.037,-0.013,-1.645,-0.024,0.078,0,0
32.34,1,-0.082,0.029,0.001,-0.052,0.029,-0.004,-1.647,-0.026,0.078,0,0
32.44,1,-0.046,0.023,-0.001,-0.057,0.03,-0.002,-1.647,-0.029,0.077,0,0
32.54,1,0.003,0.025,0.001,-0.032,0.03,-0.001,-1.646,-0.034,0.077,0,0
32.64,1,0.022,0.016,0,-0.001,0.021,-0.001,-1.646,-0.034,0.077,0,0
32.74,1,0,0.016,-0.01,0.01,0.017,-0.004,-1.646,-0.033,0.077,0,0
32.84,1,0.008,0.029,-0.025,0.006,0.022,-0.012,-1.642,-0.032,0.077,0,0
32.94,1,-0.024,0.015,-0.031,-0.008,0.022,-0.023,-1.64,-0.036,0.077,0,0
33.04,1,-0.012,0.013,-0.025,-0.016,0.016,-0.027,-1.638,-0.039,0.076,0,0
33.14,1,0.005,0,-0.017,-0.008,0.009,-0.021,-1.637,-0.036,0.076,0,0
33.24,1,0.023,0.015,-0.016,0.011,0.008,-0.017,-1.636,-0.038,0.076,0,0
33.34,1,0,0.041,-0.024,0.012,0.025,-0.023,-1.634,-0.038,0.076,0,0
33.44,1,-0.037,0.036,-0.019,-0.014,0.03,-0.018,-1.634,-0.04,0.076,0,0
33.54,1,0,0.017,-0.071,-0.013,0.027,-0.039,-1.629,-0.041,0.076,0,0
33.64,1,0.024,-0.003,-0.1,0.005,0.013,-0.071,-1.619,-0.039,0.076,0,0
33.74,1,-0.003,-0.008,-0.096,0.006,0.003,-0.091,-1.608,-0.039,0.076,0,0
33.84,1,-0.003,0.006,-0.076,-0.002,0.002,-0.087,-1.601,-0.041,0.076,0,0
33.95,1,0.019,0.012,-0.072,0.009,0.006,-0.079,-1.593,-0.043,0.076,0,0
34.05,1,0.008,0.017,-0.062,0.01,0.01,-0.07,-1.589,-0.043,0.076,0,0
34.15,1,-0.023,0.028,-0.053,-0.002,0.021,-0.06,-1.585,-0.044,0.076,0,0
34.24,1,-0.036,0.002,-0.053,-0.018,0.013,-0.059,-1.58,-0.046,0.076,0,0
34.34,1,-0.031,0.01,0.004,-0.028,0.008,-0.031,-1.579,-0.047,0.076,0,0
34.44,1,-0.021,0.02,-0.006,-0.03,0.016,-0.012,-1.579,-0.049,0.075,0,0
34.55,1,0.009,-0.013,0.019,-0.01,0.002,0.002,-1.579,-0.048,0.075,0,0
34.65,1,-0.008,-0.019,0.016,-0.005,-0.008,0.01,-1.58,-0.046,0.076,0,0
34.75,1,-0.017,-0.017,0.015,-0.013,-0.014,0.016,-1.582,-0.043,0.076,0,0
34.85,1,0.012,-0.009,0.01,-0.001,-0.014,0.013,-1.582,-0.04,0.076,0,0
34.95,1,0.004,-0.004,-0.005,0.008,-0.007,0.006,-1.581,-0.039,0.077,0,0
35.05,1,-0.004,-0.016,0.02,-0.002,-0.011,0.008,-1.583,-0.036,0.077,0,0
35.15,1,-0.016,-0.047,0.017,-0.006,-0.026,0.015,-1.584,-0.031,0.079,0,0
35.25,1,-0.026,-0.051,-0.005,-0.02,-0.04,0.005,-1.584,-0.026,0.082,0,0
35.35,1,-0.028,-0.051,0.006,-0.026,-0.048,0.002,-1.584,-0.018,0.084,0,0
35.45,1,-0.008,-0.055,0.019,-0.02,-0.053,0.011,-1.585,-0.016,0.086,0,0
35.55,1,0.001,-0.025,0.003,-0.009,-0.047,0.012,-1.587,-0.013,0.088,0,0
35.65,1,0.018,-0.004,0.013,0.01,-0.02,0.01,-1.588,-0.007,0.09,0,0
35.76,1,0.028,-0.013,0.022,0.02,-0.014,0.014,-1.589,-0.003,0.093,0,0
35.85,1,-0.011,-0.043,0.008,0.012,-0.023,0.013,-1.59,0.001,0.096,0,0
35.96,1,-0.025,-0.068,0.005,-0.011,-0.046,0.01,-1.591,0.004,0.099,0,0
36.05,1,-0.052,-0.013,0.006,-0.028,-0.038,0.005,-1.59,0.006,0.101,0,0
36.15,1,-0.063,-0.016,0.03,-0.049,-0.025,0.017,-1.592,0.007,0.104,0,0
36.25,1,-0.027,-0.032,0.002,-0.049,-0.024,0.012,-1.593,0.005,0.107,0,0
36.35,1,0.089,-0.039,0.035,0.006,-0.032,0.02,-1.594,0.006,0.109,0,0
36.45,1,0.117,-0.016,0.016,0.074,-0.03,0.023,-1.593,0.008,0.112,0,0
36.55,1,0.059,-0.039,0.021,0.084,-0.03,0.018,-1.593,0.01,0.115,0,0
36.65,1,-0.013,-0.015,0.009,0.039,-0.027,0.018,-1.595,0.015,0.117,0,0
36.75,1,-0.063,0.007,0.001,-0.017,-0.006,0.004,-1.594,0.015,0.119,0,0
36.96,1,-0.047,-0.007,0.026,-0.062,-0.006,0.02,-1.597,0.012,0.122,0,0
37.06,1,0.029,0.014,-0.003,-0.021,0.002,0.015,-1.6,0.011,0.123,0,0
37.17,1,0.021,0.02,0.004,0.014,0.018,0.006,-1.601,0.007,0.123,0,0
37.26,1,-0.016,0.039,-0.007,0.004,0.027,-0.002,-1.601,0,0.124,0,0
37.36,1,-0.056,0.052,0,-0.028,0.041,0,-1.602,-0.002,0.123,0,0
37.46,1,-0.036,0.033,-0.016,-0.042,0.043,-0.008,-1.602,-0.007,0.123,0,0
37.56,1,0.021,0.043,0.008,-0.01,0.039,-0.004,-1.601,-0.011,0.122,0,0
37.66,1,0.026,0.026,0.004,0.012,0.034,0.002,-1.601,-0.014,0.121,0,0
37.76,1,0.05,0.049,0.01,0.03,0.039,0.006,-1.602,-0.018,0.12,0,0
37.86,1,0.024,0.029,-0.001,0.035,0.037,0.001,-1.601,-0.025,0.119,0,0
37.96,1,-0.032,0.058,0.009,0.003,0.041,0.006,-1.602,-0.025,0.119,0,0
38.06,1,-0.06,0.047,0,-0.029,0.049,0.003,-1.601,-0.027,0.118,0,0
38.17,1,-0.046,0.004,0.003,-0.046,0.028,0.005,-1.601,-0.026,0.118,0,0
38.27,1,-0.019,0.005,-0.015,-0.035,0.012,-0.004,-1.6,-0.027,0.117,0,0
38.36,1,-0.003,0.03,0.009,-0.015,0.019,0.001,-1.601,-0.027,0.117,0,0
38.46,1,-0.012,0.023,-0.016,-0.012,0.028,-0.007,-1.601,-0.027,0.116,0,0
38.56,1,-0.036,0.021,0.003,-0.021,0.019,-0.003,-1.602,-0.027,0.116,0,0
38.66,1,-0.031,0.02,-0.002,-0.026,0.019,-0.002,-1.601,-0.03,0.115,0,0
38.76,1,-0.03,0.026,0,-0.033,0.023,0.001,-1.602,-0.028,0.114,0,0
38.86,1,-0.028,0.046,-0.008,-0.025,0.038,-0.006,-1.601,-0.029,0.113,0,0
38.96,1,-0.013,0.013,0.011,-0.024,0.025,0.001,-1.601,-0.029,0.113,0,0
39.06,1,-0.002,-0.001,-0.014,-0.01,0.011,-0.004,-1.6,-0.031,0.112,0,0
39.16,1,-0.016,-0.013,0,-0.012,-0.004,-0.005,-1.6,-0.027,0.111,0,0
39.27,1,-0.029,0.042,-0.002,-0.023,0.017,0.003,-1.601,-0.027,0.11,0,0
39.36,1,-0.019,0.017,-0.003,-0.022,0.023,-0.003,-1.601,-0.028,0.109,0,0
39.46,1,-0.013,0.007,0.003,-0.019,0.015,0,-1.601,-0.029,0.109,0,0
39.56,1,-0.015,0.01,-0.006,-0.014,0.012,-0.002,-1.601,-0.027,0.108,0,0
39.66,1,0,0.004,0.009,-0.01,0.01,-0.001,-1.602,-0.023,0.107,0,0
39.77,1,0.033,0.032,0.021,0.01,0.015,0.014,-1.603,-0.025,0.106,0,0
39.87,1,0.051,-0.004,-0.01,0.037,0.013,0.004,-1.601,-0.026,0.105,0,0
39.97,1,0.016,0.024,-0.018,0.031,0.014,-0.007,-1.6,-0.027,0.104,0,0
40.08,1,-0.046,0.005,0.003,-0.004,0.009,-0.01,-1.6,-0.026,0.103,0,0
40.17,1,-0.054,0.001,0.001,-0.034,0.006,-0.001,-1.6,-0.026,0.102,0,0
40.27,1,-0.042,-0.013,0.009,-0.044,-0.002,0.003,-1.6,-0.028,0.101,0,0
40.37,1,0.018,0.012,-0.019,-0.019,-0.002,-0.001,-1.6,-0.028,0.099,0,0
40.47,1,0.012,-0.007,0.001,0.005,0.002,-0.008,-1.6,-0.023,0.099,0,0
40.57,1,-0.021,-0.042,0.001,-0.004,-0.015,-0.001,-1.601,-0.018,0.099,0,0
40.67,1,-0.061,-0.08,-0.004,-0.032,-0.05,-0.004,-1.599,-0.013,0.1,0,0
40.77,1,-0.024,-0.076,-0.003,-0.039,-0.071,-0.001,-1.599,-0.009,0.102,0,0
40.87,1,0.027,-0.085,-0.007,-0.006,-0.078,-0.003,-1.6,0.001,0.104,0,0
40.97,1,0.001,-0.068,-0.009,0.008,-0.074,-0.004,-1.599,0.007,0.105,0,0
41.07,1,-0.008,-0.043,-0.007,-0.004,-0.06,-0.011,-1.598,0.01,0.107,0,0
41.18,1,-0.014,-0.031,-0.006,-0.01,-0.047,-0.005,-1.598,0.013,0.108,0,0
41.28,1,-0.018,0.003,-0.019,-0.015,-0.023,-0.012,-1.598,0.016,0.108,0,0
41.37,1,0.018,0.007,0,-0.001,0,-0.01,-1.598,0.017,0.108,0,0
41.47,1,-0.007,0.016,0.006,0,0.006,-0.001,-1.599,0.017,0.108,0,0
41.57,1,-0.002,0.013,-0.022,-0.011,0.011,-0.009,-1.598,0.016,0.108,0,0
41.67,1,0.005,-0.004,-0.003,0.001,0.006,-0.008,-1.598,0.016,0.107,0,0
41.78,1,0.028,0.018,-0.004,0.018,0.008,-0.005,-1.597,0.015,0.106,0,0
41.87,1,-0.008,0.043,-0.014,0.018,0.025,-0.007,-1.596,0.013,0.105,0,0
41.97,1,-0.03,0.026,-0.022,-0.008,0.029,-0.015,-1.593,0.011,0.105,0,0
42.07,1,-0.037,0.009,-0.004,-0.03,0.024,-0.013,-1.593,0.009,0.104,0,0
42.18,1,-0.007,0.03,0,-0.019,0.023,-0.003,-1.595,0.007,0.103,0,0
42.28,1,-0.064,0.018,-0.023,-0.039,0.021,-0.014,-1.595,0.007,0.102,0,0
42.38,1,-0.076,0.003,-0.018,-0.06,0.012,-0.014,-1.594,0.004,0.102,0,0
42.48,1,-0.071,0.011,-0.002,-0.069,0.011,-0.013,-1.594,0.001,0.101,0,0
42.58,1,0.009,0.016,0.016,-0.04,0.01,0.005,-1.595,-0.003,0.1,0,0
42.68,1,0.027,0.022,-0.013,-0.001,0.015,-0.002,-1.594,-0.001,0.099,0,0
42.78,1,0.057,0.023,0.009,0.032,0.019,0.003,-1.594,0.001,0.099,0,0
42.88,1,0.11,0.016,-0.011,0.069,0.022,-0.004,-1.589,0.001,0.098,0,0
42.99,1,0.035,-0.021,-0.026,0.072,0.004,-0.013,-1.587,-0.001,0.097,0,0
43.08,1,-0.077,0.002,0.005,-0.003,-0.005,-0.01,-1.587,-0.002,0.096,0,0
43.18,1,-0.064,0.021,0.002,-0.046,0.007,0.001,-1.587,-0.005,0.095,0,0
43.28,1,-0.025,0.012,-0.025,-0.042,0.014,-0.01,-1.584,-0.007,0.095,0,0
43.38,1,0.004,-0.014,-0.015,-0.018,0.003,-0.018,-1.583,-0.008,0.095,0,0
43.48,1,0.009,-0.004,0.002,-0.001,-0.007,-0.008,-1.583,-0.007,0.094,0,0
43.58,1,0.023,0.008,-0.003,0.008,0,-0.002,-1.584,-0.008,0.093,0,0
43.69,1,-0.01,0.01,-0.005,0.008,0.009,-0.005,-1.583,-0.012,0.092,0,0
43.79,1,-0.059,-0.002,0.011,-0.023,0.006,0.003,-1.584,-0.012,0.091,0,0
43.88,1,-0.003,0.011,-0.003,-0.028,0.007,0,-1.583,-0.014,0.091,0,0
43.98,1,0.039,-0.032,-0.009,0.007,-0.008,-0.004,-1.582,-0.013,0.09,0,0
44.09,1,0.013,-0.017,-0.016,0.018,-0.021,-0.008,-1.581,-0.011,0.089,0,0
44.19,1,-0.036,0.02,-0.01,-0.007,-0.005,-0.012,-1.582,-0.012,0.088,0,0
44.28,1,0.013,0.018,-0.008,-0.005,0.014,-0.01,-1.581,-0.011,0.088,0,0
44.38,1,-0.017,-0.003,0.004,-0.003,0.006,-0.003,-1.581,-0.01,0.087,0,0
44.48,1,-0.041,0,-0.017,-0.024,0.003,-0.01,-1.579,-0.009,0.087,0,0
44.58,1,-0.054,-0.016,-0.015,-0.042,-0.007,-0.01,-1.578,-0.008,0.087,0,0
44.69,1,-0.009,-0.027,-0.013,-0.028,-0.016,-0.015,-1.577,-0.008,0.086,0,0
44.79,1,0.043,-0.002,-0.001,0,-0.015,-0.009,-1.577,-0.007,0.086,0,0
44.89,1,0.047,0,-0.007,0.032,-0.001,-0.004,-1.577,-0.008,0.085,0,0
44.99,1,-0.03,-0.018,-0.012,0.01,-0.012,-0.007,-1.577,-0.005,0.085,0,0
45.09,1,-0.036,-0.028,-0.01,-0.02,-0.017,-0.01,-1.576,-0.005,0.086,0,0
45.19,1,-0.044,-0.035,-0.013,-0.029,-0.025,-0.012,-1.576,-0.004,0.086,0,0
45.29,1,-0.034,-0.04,-0.01,-0.036,-0.039,-0.012,-1.575,-0.003,0.086,0,0
45.39,1,0.002,-0.007,-0.003,-0.022,-0.023,-0.006,-1.574,-0.006,0.086,0,0
45.49,1,0.032,-0.018,0,0.004,-0.017,-0.006,-1.574,-0.005,0.086,0,0
45.59,1,-0.013,-0.039,-0.008,0.009,-0.027,0,-1.574,-0.006,0.086,0,0
45.69,1,-0.031,-0.011,-0.005,-0.012,-0.023,-0.01,-1.574,-0.006,0.086,0,0
45.79,1,0.005,0.004,-0.015,-0.011,-0.01,-0.008,-1.573,-0.008,0.086,0,0
45.9,1,-0.01,-0.029,-0.003,-0.006,-0.013,-0.008,-1.572,-0.009,0.086,0,0
45.99,1,-0.006,-0.013,-0.017,-0.005,-0.015,-0.01,-1.57,-0.009,0.087,0,0
46.09,1,0.007,-0.015,0.018,-0.004,-0.016,-0.001,-1.571,-0.008,0.087,0,0
46.19,1,-0.027,-0.004,-0.014,-0.007,-0.016,0,-1.571,-0.01,0.087,0,0
46.3,1,-0.027,-0.045,-0.005,-0.027,-0.027,-0.007,-1.569,-0.011,0.087,0,0
46.4,1,0.021,-0.008,-0.002,-0.007,-0.02,-0.002,-1.57,-0.009,0.087,0,0
46.49,1,0.034,0.004,-0.024,0.02,-0.006,-0.013,-1.567,-0.009,0.088,0,0
46.59,1,0.002,-0.038,-0.013,0.017,-0.016,-0.015,-1.566,-0.006,0.088,0,0
46.69,1,-0.048,-0.044,0.004,-0.011,-0.032,-0.008,-1.567,-0.003,0.089,0,0
46.79,1,0.025,0.026,-0.007,-0.007,-0.013,-0.001,-1.566,-0.003,0.089,0,0
46.9,1,-0.023,0.012,-0.044,-0.004,0.007,-0.021,-1.563,-0.003,0.089,0,0
46.99,1,-0.01,-0.002,0.006,-0.019,0.003,-0.017,-1.562,-0.004,0.09,0,0
47.1,1,0.032,0,-0.006,0.005,0.002,-0.008,-1.561,-0.002,0.09,0,0
47.2,1,0.028,-0.017,-0.007,0.025,-0.004,-0.004,-1.559,-0.004,0.09,0,0
47.3,1,-0.003,-0.025,-0.009,0.016,-0.019,-0.011,-1.558,-0.002,0.09,0,0
47.4,1,-0.001,0.01,0.005,0.002,-0.009,-0.001,-1.559,0,0.091,0,0
47.5,1,-0.002,0.013,-0.005,0.003,0.005,-0.001,-1.559,0,0.091,0,0
47.6,1,-0.027,0.021,-0.008,-0.016,0.015,-0.004,-1.559,-0.002,0.091,0,0
47.7,1,-0.058,0.004,-0.013,-0.038,0.013,-0.011,-1.558,-0.003,0.09,0,0
47.8,1,-0.016,0.025,-0.001,-0.038,0.01,-0.004,-1.559,-0.005,0.09,0,0
47.9,1,0.007,0.012,-0.016,-0.004,0.024,-0.012,-1.559,-0.009,0.09,0,0
48,1,0.028,0.015,0.012,0.007,0.012,-0.003,-1.559,-0.01,0.089,0,0
48.1,1,-0.012,-0.02,0.011,0.009,0,0.007,-1.56,-0.011,0.089,0,0
48.21,1,-0.006,0.028,0.006,-0.006,0.002,0.009,-1.559,-0.015,0.087,0,0
48.31,1,0.001,0.043,-0.018,0.002,0.03,-0.005,-1.558,-0.022,0.085,0,0
48.4,1,-0.016,0.052,0.016,-0.008,0.04,0.001,-1.559,-0.026,0.083,0,0
48.5,1,-0.027,0.072,-0.004,-0.016,0.055,0.003,-1.559,-0.034,0.08,0,0
48.6,1,0.004,0.048,0.003,-0.009,0.059,0.002,-1.559,-0.04,0.078,0,0
48.7,1,-0.007,0.026,-0.002,-0.009,0.044,-0.002,-1.559,-0.041,0.076,0,0
48.81,1,-0.044,0.006,0.004,-0.02,0.023,0.002,-1.56,-0.04,0.074,0,0
48.9,1,-0.066,0.026,0,-0.046,0.02,0.001,-1.561,-0.043,0.072,0,0
49,1,-0.081,0.031,0.003,-0.066,0.025,0.002,-1.563,-0.046,0.07,0,0
49.1,1,-0.033,0.039,-0.001,-0.064,0.031,-0.001,-1.566,-0.048,0.069,0,0
49.21,1,-0.038,0.001,-0.002,-0.042,0.019,-0.001,-1.568,-0.049,0.067,0,0
49.31,1,-0.098,0.004,0.004,-0.066,0.009,0.002,-1.571,-0.049,0.065,0,0
49.41,1,0.055,0.025,0.03,-0.03,0.017,0.013,-1.571,-0.05,0.064,0,0
49.51,1,0.17,-0.024,-0.011,0.075,0.002,0.005,-1.566,-0.047,0.063,0,0
49.61,1,0.067,-0.024,-0.001,0.101,-0.015,0.002,-1.566,-0.047,0.061,0,0
49.71,1,0.002,-0.023,0.017,0.051,-0.019,0.007,-1.566,-0.047,0.06,0,0
49.81,1,0.01,-0.011,0.004,0.034,-0.015,0.011,-1.564,-0.044,0.06,0,0
49.91,1,-0.082,-0.019,-0.018,-0.022,-0.02,-0.008,-1.563,-0.042,0.059,0,0
50.01,1,-0.064,-0.01,0.015,-0.067,-0.013,0.003,-1.563,-0.042,0.058,0,0
50.11,1,0.093,-0.008,0.027,-0.002,-0.01,0.017,-1.563,-0.041,0.058,0,0
50.21,1,0.013,-0.023,-0.033,0.044,-0.013,-0.004,-1.56,-0.039,0.057,0,0
50.31,1,-0.151,-0.043,0.007,-0.045,-0.026,-0.008,-1.564,-0.036,0.058,0,0
50.41,1,-0.14,-0.015,0.028,-0.119,-0.028,0.013,-1.566,-0.037,0.058,0,0
50.51,1,-0.015,-0.013,0.011,-0.092,-0.014,0.015,-1.568,-0.032,0.058,0,0
50.61,1,0.154,-0.02,0.012,0.033,-0.024,0.015,-1.57,-0.028,0.058,0,0
50.71,1,0.111,-0.029,-0.037,0.106,-0.02,-0.014,-1.568,-0.025,0.058,0,0
50.81,1,0.011,-0.029,0.005,0.068,-0.03,-0.004,-1.57,-0.018,0.058,0,0
50.91,1,-0.052,-0.041,0,0.005,-0.032,-0.002,-1.571,-0.014,0.058,0,0
51.01,1,-0.09,-0.065,-0.014,-0.048,-0.052,-0.005,-1.571,-0.011,0.058,0,0
51.12,1,-0.091,-0.019,-0.013,-0.082,-0.039,-0.014,-1.571,-0.012,0.059,0,0
51.22,1,-0.025,-0.025,-0.035,-0.062,-0.026,-0.017,-1.571,-0.011,0.059,0,0
51.31,1,0.003,-0.018,-0.008,-0.022,-0.027,-0.019,-1.572,-0.006,0.06,0,0
51.41,1,-0.003,-0.01,-0.053,-0.01,-0.021,-0.033,-1.569,-0.004,0.06,0,0
51.51,1,-0.008,-0.031,-0.036,-0.012,-0.016,-0.037,-1.565,-0.001,0.061,0,0
51.61,1,0.028,-0.047,-0.05,0.005,-0.031,-0.045,-1.558,0.003,0.063,0,0
51.71,1,0.012,-0.065,-0.047,0.017,-0.051,-0.043,-1.554,0.007,0.065,0,0
51.82,1,-0.057,-0.065,-0.045,-0.011,-0.063,-0.047,-1.553,0.006,0.067,0,0
51.91,1,-0.039,-0.057,-0.057,-0.034,-0.058,-0.049,-1.552,0.007,0.069,0,0
52.01,1,-0.007,-0.038,-0.015,-0.021,-0.049,-0.037,-1.551,0.01,0.071,0,0
52.12,1,-0.034,-0.017,-0.025,-0.025,-0.034,-0.028,-1.551,0.014,0.073,0,0
52.22,1,0.004,-0.041,-0.035,-0.022,-0.031,-0.028,-1.55,0.02,0.074,0,0
52.33,1,-0.002,-0.027,-0.03,-0.004,-0.036,-0.034,-1.548,0.022,0.076,0,0
52.42,1,-0.033,0,-0.021,-0.013,-0.022,-0.025,-1.547,0.023,0.077,0,0
52.52,1,0.016,0.009,0.008,-0.006,-0.004,-0.011,-1.544,0.023,0.079,0,0
52.62,1,-0.009,-0.037,-0.043,0.006,-0.008,-0.022,-1.541,0.027,0.08,0,0
52.72,1,-0.027,-0.014,-0.005,-0.008,-0.018,-0.014,-1.542,0.029,0.081,0,0
52.82,1,0.039,-0.018,0.001,-0.013,-0.021,-0.008,-1.541,0.032,0.082,0,0
52.92,1,-0.008,-0.026,-0.049,0.019,-0.021,-0.027,-1.536,0.029,0.083,0,0
53.02,1,-0.105,0.005,-0.023,-0.046,-0.015,-0.027,-1.537,0.028,0.084,0,0
53.12,1,-0.099,0.016,-0.027,-0.078,0.01,-0.029,-1.537,0.027,0.084,0,0
53.22,1,-0.048,-0.011,-0.027,-0.082,0.002,-0.027,-1.535,0.025,0.085,0,0
53.33,1,0.082,0.001,-0.004,-0.006,-0.01,-0.015,-1.534,0.026,0.086,0,0
53.42,1,0.035,0.031,-0.012,0.039,0.011,-0.015,-1.533,0.023,0.087,0,0
53.52,1,-0.073,0.005,0.012,-0.011,0.017,-0.002,-1.534,0.024,0.087,0,0
53.63,1,-0.051,-0.023,0.007,-0.043,-0.003,0.006,-1.536,0.026,0.088,0,0
53.72,1,-0.004,-0.016,0.011,-0.033,-0.014,0.008,-1.537,0.026,0.088,0,0
53.82,1,0.094,0.013,0.027,0.027,-0.001,0.015,-1.536,0.02,0.088,0,0
53.92,1,0.027,0.033,-0.011,0.05,0.015,0.009,-1.533,0.017,0.088,0,0
54.02,1,-0.068,0.037,0.001,-0.004,0.028,0,-1.534,0.011,0.088,0,0
54.12,1,-0.063,0.035,0.026,-0.049,0.032,0.012,-1.537,0.008,0.088,0,0
54.22,1,0.031,-0.002,0.016,-0.02,0.024,0.016,-1.538,0.009,0.089,0,0
54.32,1,0.008,0.006,0.012,0.006,0.007,0.016,-1.54,0.013,0.089,0,0
54.42,1,-0.034,-0.002,0.012,-0.011,0.005,0.011,-1.541,0.013,0.089,0,0
54.52,1,0.024,0.001,0.029,-0.011,-0.002,0.018,-1.542,0.012,0.089,0,0
54.63,1,0.018,0.011,0.019,0.02,0.002,0.027,-1.544,0.012,0.089,0,0
54.73,1,0.003,0.034,0.014,0.018,0.023,0.013,-1.545,0.012,0.09,0,0
54.83,1,-0.019,0.004,0.041,-0.004,0.014,0.03,-1.547,0.012,0.09,0,0
54.93,1,0.003,0.031,0.039,-0.002,0.017,0.04,-1.55,0.011,0.09,0,0
55.03,1,-0.037,0.01,0.031,-0.017,0.02,0.031,-1.553,0.014,0.09,0,0
55.13,1,0.019,-0.003,0.033,-0.009,0.008,0.031,-1.556,0.016,0.09,0,0
55.24,1,0.011,0.005,0.015,0.005,0.006,0.025,-1.559,0.016,0.09,0,0
55.33,1,-0.04,0.009,0.019,-0.012,0.008,0.02,-1.561,0.014,0.09,0,0
55.43,1,-0.053,0.012,0.012,-0.036,0.007,0.018,-1.562,0.012,0.09,0,0
55.53,1,-0.035,0.012,0.028,-0.036,0.012,0.016,-1.564,0.012,0.09,0,0
55.63,1,0.019,0.033,0.027,-0.015,0.02,0.027,-1.565,0.011,0.09,0,0
55.73,1,-0.01,-0.017,-0.003,-0.001,0.011,0.016,-1.565,0.011,0.09,0,0
55.83,1,-0.023,0.004,0.017,-0.018,0.003,0.01,-1.566,0.012,0.09,0,0
55.93,1,0.015,-0.005,0.012,-0.008,-0.002,0.012,-1.568,0.01,0.09,0,0
56.03,1,-0.01,0.005,0.02,-0.005,-0.001,0.015,-1.569,0.008,0.091,0,0
56.13,1,-0.034,-0.003,0.004,-0.017,0.001,0.012,-1.571,0.01,0.091,0,0
56.24,1,-0.044,-0.003,-0.009,-0.026,-0.001,0.001,-1.572,0.012,0.092,0,0
56.33,1,-0.01,-0.022,0.026,-0.034,-0.012,0.007,-1.575,0.013,0.092,0,0
56.44,1,0.009,0.01,0.002,-0.002,-0.007,0.015,-1.576,0.014,0.093,0,0
56.53,1,-0.022,0.008,-0.003,-0.004,0.004,0.002,-1.576,0.018,0.094,0,0
56.63,1,-0.044,-0.003,0.012,-0.029,0.001,0.006,-1.577,0.019,0.094,0,0
56.73,1,-0.015,-0.014,0.004,-0.028,-0.005,0.005,-1.578,0.02,0.095,0,0
56.83,1,-0.027,-0.01,0.007,-0.024,-0.012,0.007,-1.578,0.018,0.096,0,0
56.93,1,-0.02,-0.006,-0.007,-0.019,-0.01,0,-1.578,0.017,0.096,0,0
57.03,1,-0.003,-0.011,0.007,-0.016,-0.005,0.003,-1.58,0.014,0.097,0,0
57.13,1,0.018,0.003,0.004,0.002,-0.003,0.005,-1.579,0.014,0.097,0,0
57.24,1,0,0,0.005,0.009,-0.001,0.003,-1.58,0.014,0.098,0,0
57.34,1,-0.044,0.003,-0.003,-0.021,0,0.001,-1.581,0.014,0.098,0,0
57.44,1,0.008,-0.009,0.023,-0.018,0,0.011,-1.581,0.015,0.099,0,0
57.54,1,-0.031,0.001,-0.015,-0.007,-0.001,0,-1.58,0.015,0.1,0,0
57.64,1,-0.066,-0.004,0.011,-0.044,-0.005,0.002,-1.581,0.014,0.1,0,0
57.74,1,-0.061,-0.026,-0.027,-0.056,-0.013,-0.006,-1.582,0.015,0.101,0,0
57.84,1,-0.081,-0.038,-0.01,-0.066,-0.028,-0.016,-1.583,0.015,0.102,0,0
57.94,1,-0.05,-0.02,0.012,-0.067,-0.027,0.003,-1.585,0.011,0.102,0,0
58.04,1,-0.052,0.013,-0.014,-0.053,-0.01,-0.004,-1.586,0.009,0.102,0,0
58.14,1,-0.034,-0.022,-0.009,-0.047,-0.006,-0.012,-1.588,0.005,0.103,0,0
58.24,1,-0.008,-0.054,0.006,-0.027,-0.031,0,-1.59,0.003,0.105,0,0
58.34,1,-0.039,-0.035,-0.002,-0.025,-0.037,-0.002,-1.591,0.001,0.106,0,0
58.44,1,-0.001,0.006,0.008,-0.021,-0.019,0.005,-1.589,0,0.108,0,0
58.54,1,0.025,-0.015,-0.022,0.005,-0.01,-0.008,-1.587,0,0.109,0,0
58.64,1,0.011,-0.032,-0.002,0.012,-0.023,-0.011,-1.587,0.003,0.111,0,0
58.75,1,-0.049,-0.014,0.02,-0.009,-0.025,0.006,-1.59,0.004,0.113,0,0
58.85,1,-0.079,-0.035,-0.026,-0.051,-0.027,-0.005,-1.589,0.006,0.115,0,0
58.94,1,-0.006,-0.07,0.017,-0.046,-0.042,0.002,-1.586,0.009,0.118,0,0
59.04,1,0.025,-0.07,-0.033,0.007,-0.056,-0.013,-1.584,0.01,0.121,0,0
59.14,1,-0.023,-0.087,0.026,-0.013,-0.075,-0.003,-1.588,0.015,0.124,0,0
59.24,1,-0.001,-0.091,0.001,-0.006,-0.085,0.013,-1.59,0.022,0.127,0,0
59.35,1,-0.003,-0.068,-0.006,-0.007,-0.081,-0.005,-1.589,0.023,0.13,0,0
59.44,1,-0.014,-0.038,0.007,-0.009,-0.056,0,-1.591,0.022,0.133,0,0
59.54,1,-0.051,-0.068,0.005,-0.022,-0.056,0.006,-1.593,0.024,0.137,0,0
59.65,1,-0.043,-0.075,0.005,-0.047,-0.072,0.004,-1.594,0.029,0.142,0,0
59.75,1,-0.001,-0.072,0.001,-0.025,-0.072,0.003,-1.593,0.032,0.146,0,0
59.85,1,0.024,-0.038,-0.008,0,-0.058,-0.003,-1.592,0.036,0.15,0,0
59.95,1,-0.033,-0.049,0.014,-0.001,-0.045,0.007,-1.595,0.038,0.153,0,0
60.05,1,-0.056,-0.048,-0.019,-0.032,-0.053,-0.002,-1.595,0.038,0.157,0,0
60.15,1,-0.029,-0.027,-0.02,-0.039,-0.039,-0.016,-1.595,0.036,0.16,0,0
60.25,1,0.015,-0.025,0,-0.017,-0.029,-0.007,-1.598,0.036,0.164,0,0
60.35,1,-0.007,-0.01,-0.03,-0.004,-0.02,-0.018,-1.595,0.041,0.168,0,0
60.45,1,-0.029,-0.02,-0.005,-0.014,-0.017,-0.013,-1.592,0.044,0.172,0,0
60.55,1,0.01,-0.035,-0.026,-0.007,-0.029,-0.017,-1.591,0.047,0.176,0,0
60.65,1,-0.015,-0.002,-0.014,-0.003,-0.019,-0.018,-1.591,0.047,0.18,0,0
60.75,1,-0.038,-0.018,-0.013,-0.028,-0.015,-0.015,-1.591,0.045,0.183,0,0
60.85,1,-0.032,-0.034,-0.035,-0.026,-0.02,-0.022,-1.589,0.044,0.187,0,0
60.96,1,-0.009,-0.022,-0.013,-0.02,-0.026,-0.022,-1.588,0.043,0.191,0,0
61.05,1,0.01,-0.027,-0.002,-0.005,-0.025,-0.01,-1.587,0.04,0.195,0,0
61.15,1,-0.003,-0.059,-0.005,-0.002,-0.041,-0.01,-1.584,0.04,0.199,0,0
61.25,1,0.011,-0.019,0.001,0.002,-0.039,-0.002,-1.586,0.039,0.203,0,0
61.35,1,0.01,-0.012,-0.023,0.008,-0.024,-0.012,-1.585,0.036,0.207,0,0
61.45,1,-0.01,-0.013,-0.01,0.005,-0.014,-0.014,-1.584,0.035,0.211,0,0
61.56,1,-0.035,-0.012,0.002,-0.016,-0.01,-0.005,-1.585,0.036,0.215,0,0
61.66,1,-0.018,-0.016,-0.01,-0.026,-0.015,-0.006,-1.584,0.035,0.219,0,0
61.75,1,0.006,-0.028,0.006,-0.013,-0.02,-0.001,-1.584,0.034,0.222,0,0
61.85,1,0.044,-0.002,-0.004,0.019,-0.018,-0.001,-1.582,0.031,0.226,0,0
61.95,1,0.024,0.029,-0.003,0.026,0.008,-0.003,-1.581,0.024,0.23,0,0
62.05,1,0.02,-0.016,0.002,0.023,0.006,-0.001,-1.581,0.027,0.234,0,0
62.15,1,-0.048,-0.043,-0.013,-0.007,-0.02,-0.005,-1.58,0.03,0.238,0,0
62.27,1,0.006,-0.01,0.008,-0.012,-0.026,-0.002,-1.58,0.03,0.242,0,0
62.36,1,0.067,0.031,0.017,0.026,0,0.01,-1.579,0.028,0.246,0,0
62.46,1,0.082,0.001,-0.024,0.066,0.014,-0.005,-1.575,0.031,0.249,0,0
62.56,1,-0.039,-0.038,-0.016,0.025,-0.012,-0.013,-1.574,0.035,0.254,0,0
62.66,1,-0.158,-0.011,0,-0.066,-0.021,-0.009,-1.577,0.036,0.258,0,0
62.76,1,-0.129,0.01,0.017,-0.121,0.002,0.002,-1.579,0.036,0.262,0,0
62.87,1,-0.03,0.002,-0.002,-0.083,-0.001,0.007,-1.58,0.036,0.265,0,0
62.97,1,0.057,0.022,0.029,-0.017,0.002,0.009,-1.58,0.038,0.268,0,0
63.06,1,0.112,-0.003,0.018,0.06,0.012,0.023,-1.582,0.036,0.272,0,0
63.16,1,0.034,-0.013,-0.022,0.064,-0.001,0.003,-1.579,0.036,0.276,0,0
63.26,1,-0.096,-0.018,0.014,-0.012,-0.012,-0.001,-1.579,0.032,0.28,0,0
63.36,1,-0.072,-0.007,0.022,-0.055,-0.01,0.015,-1.58,0.033,0.283,0,0
63.47,1,-0.078,-0.031,-0.036,-0.068,-0.021,-0.007,-1.58,0.029,0.286,0,0
63.56,1,0.006,0.024,0.037,-0.049,-0.006,0.007,-1.582,0.026,0.289,0,0
63.66,1,0.032,0.024,0.008,0.003,0.015,0.011,-1.583,0.025,0.292,0,0
63.76,1,0.029,0.003,0.023,0.02,0.011,0.018,-1.584,0.023,0.295,0,0
63.87,1,-0.009,-0.029,0.006,0.008,-0.008,0.014,-1.584,0.026,0.299,0,0
63.96,1,0.013,-0.015,0.012,0.007,-0.011,0.01,-1.583,0.028,0.304,0,0
64.07,1,0.033,-0.006,0.002,0.017,-0.014,0.005,-1.582,0.031,0.308,0,0
64.17,1,0.071,-0.012,0.011,0.047,-0.01,0.01,-1.582,0.032,0.311,0,0
64.26,1,-0.012,0.017,0,0.028,0.001,0.004,-1.58,0.034,0.315,0,0
64.36,1,-0.017,-0.01,0.017,0.001,0,0.01,-1.582,0.035,0.319,0,0
64.46,1,0.02,-0.013,0.002,0.007,-0.011,0.004,-1.581,0.037,0.322,0,0
64.56,1,-0.013,-0.022,0.014,0.001,-0.013,0.011,-1.582,0.038,0.326,0,0
64.68,1,0.007,-0.001,0.001,0.002,-0.011,0.008,-1.58,0.037,0.33,0,0
64.77,1,-0.016,-0.014,0.01,-0.006,-0.008,0.006,-1.581,0.035,0.334,0,0
64.87,1,0.024,0.004,0.032,0.001,-0.005,0.016,-1.583,0.032,0.337,0,0
64.97,1,0.027,0.007,0.002,0.018,0,0.016,-1.584,0.033,0.341,0,0
65.07,1,-0.044,0.02,0.01,-0.007,0.013,0.01,-1.585,0.032,0.344,0,0
65.17,1,-0.006,-0.008,0.009,-0.016,0.002,0.015,-1.585,0.032,0.348,0,0
65.27,1,-0.037,0.018,-0.009,-0.015,0.008,-0.003,-1.585,0.034,0.351,0,0
65.37,1,-0.005,-0.004,0.033,-0.025,0.007,0.012,-1.589,0.035,0.355,0,0
65.47,1,0.021,-0.019,-0.004,0.003,-0.008,0.011,-1.589,0.035,0.358,0,0
65.57,1,-0.027,-0.014,0.003,-0.012,-0.013,0.002,-1.59,0.034,0.361,0,0
65.67,1,0.007,-0.024,0.029,-0.007,-0.018,0.017,-1.593,0.033,0.365,0,0
65.78,1,0.022,0.008,0.005,0.019,-0.01,0.018,-1.593,0.031,0.369,0,0
65.88,1,0.024,-0.047,0.029,0.022,-0.01,0.012,-1.591,0.031,0.372,0,0
65.97,1,0.066,-0.046,0.009,0.037,-0.046,0.02,-1.589,0.03,0.376,0,0
66.07,1,0.015,-0.038,0.037,0.03,-0.037,0.021,-1.59,0.032,0.38,0,0
66.18,1,-0.052,-0.027,0.016,-0.009,-0.033,0.022,-1.592,0.033,0.384,0,0
66.28,1,-0.04,-0.025,0.01,-0.033,-0.03,0.019,-1.595,0.033,0.388,0,0
66.37,1,0.024,-0.027,0.003,-0.002,-0.026,0.006,-1.595,0.034,0.391,0,0
66.47,1,0.018,-0.046,0.024,0.011,-0.036,0.016,-1.597,0.04,0.395,0,0
66.57,1,-0.015,-0.017,-0.005,0.002,-0.029,0.011,-1.597,0.043,0.399,0,0
66.67,1,0,-0.001,0.009,-0.012,-0.015,0.001,-1.595,0.046,0.403,0,0
66.78,1,0.001,0.005,-0.04,0.003,-0.006,-0.005,-1.593,0.047,0.406,0,0
66.88,1,-0.031,0.014,-0.048,-0.009,0.005,-0.037,-1.593,0.046,0.409,0,0
66.99,1,-0.014,0.038,-0.07,-0.016,0.019,-0.051,-1.592,0.045,0.412,0,0
67.09,1,-0.019,0.021,-0.059,-0.024,0.031,-0.059,-1.586,0.043,0.414,0,0
67.18,1,0.017,0.004,-0.062,-0.001,0.012,-0.061,-1.58,0.044,0.416,0,0
67.28,1,-0.001,0.021,-0.059,0.002,0.017,-0.064,-1.574,0.039,0.418,0,0
67.38,1,0.037,0.043,-0.048,0.016,0.025,-0.051,-1.571,0.035,0.421,0,0
67.48,1,0.05,0.019,-0.067,0.036,0.026,-0.06,-1.564,0.034,0.423,0,0
67.58,1,-0.029,0.018,-0.057,0.018,0.021,-0.06,-1.559,0.036,0.426,0,0
67.68,1,-0.016,0.058,-0.037,-0.01,0.036,-0.051,-1.556,0.034,0.428,0,0
67.78,1,0.001,0.039,-0.049,-0.008,0.046,-0.045,-1.552,0.03,0.43,0,0
67.88,1,0.021,0.026,-0.059,-0.002,0.031,-0.049,-1.547,0.031,0.431,0,0
67.99,1,0.041,0.024,-0.062,0.029,0.03,-0.063,-1.543,0.03,0.433,0,0
68.08,1,-0.008,0.024,-0.057,0.018,0.027,-0.057,-1.539,0.029,0.436,0,0
68.18,1,-0.025,-0.012,-0.022,-0.01,0.011,-0.041,-1.536,0.03,0.438,0,0
68.28,1,0.002,0.012,-0.046,-0.006,0.004,-0.043,-1.531,0.028,0.44,0,0
68.38,1,-0.009,0.017,-0.025,-0.005,0.012,-0.034,-1.527,0.027,0.442,0,0
68.48,1,-0.008,0.008,-0.026,-0.005,0.01,-0.028,-1.525,0.029,0.445,0,0
68.58,1,-0.034,-0.008,-0.039,-0.015,0.005,-0.035,-1.523,0.028,0.447,0,0
68.68,1,-0.032,0.007,-0.002,-0.033,0.003,-0.022,-1.522,0.026,0.449,0,0
68.78,1,0.038,0.006,-0.022,-0.011,0.003,-0.017,-1.519,0.024,0.451,0,0
68.88,1,0.057,0.013,-0.016,0.037,0.006,-0.016,-1.516,0.025,0.453,0,0
68.98,1,-0.003,-0.002,-0.021,0.029,0.006,-0.02,-1.514,0.027,0.455,0,0
69.08,1,-0.012,0.022,0.009,0.006,0.011,-0.01,-1.514,0.027,0.457,0,0
69.19,1,-0.017,0.007,-0.019,-0.013,0.012,-0.008,-1.513,0.028,0.459,0,0
69.28,1,-0.016,-0.025,-0.018,-0.016,-0.006,-0.012,-1.511,0.03,0.461,0,0
69.39,1,-0.026,0.002,-0.017,-0.021,-0.006,-0.018,-1.509,0.03,0.463,0,0
69.49,1,-0.011,0.009,-0.01,-0.02,-0.002,-0.016,-1.509,0.027,0.466,0,0
69.58,1,0.001,0.037,-0.021,-0.008,0.019,-0.014,-1.508,0.025,0.468,0,0
69.69,1,-0.037,0.027,-0.022,-0.016,0.029,-0.022,-1.506,0.022,0.469,0,0
69.79,1,-0.044,-0.003,-0.007,-0.033,0.015,-0.013,-1.506,0.022,0.472,0,0
69.9,1,0.003,0.016,-0.007,-0.021,0.011,-0.009,-1.505,0.022,0.474,0,0
69.99,1,0.028,0.001,-0.008,0.003,0.007,-0.009,-1.504,0.024,0.476,0,0
70.09,1,0.015,-0.012,-0.008,0.017,-0.001,-0.009,-1.504,0.027,0.478,0,0
70.19,1,-0.007,-0.005,0,0.009,-0.006,-0.005,-1.503,0.027,0.481,0,0
70.29,1,-0.017,0.006,0.007,-0.006,-0.002,0,-1.504,0.027,0.484,0,0
70.39,1,0.003,-0.011,-0.011,-0.005,-0.003,0.001,-1.504,0.029,0.486,0,0
70.49,1,-0.013,-0.004,0.001,-0.009,-0.003,-0.005,-1.503,0.029,0.489,0,0
70.59,1,0.008,-0.031,0.005,-0.007,-0.016,0.001,-1.503,0.03,0.491,0,0
70.69,1,0.029,-0.012,-0.012,0.015,-0.02,-0.003,-1.501,0.033,0.494,0,0
70.79,1,0.018,-0.002,-0.005,0.02,-0.009,-0.007,-1.5,0.03,0.496,0,0
70.9,1,0.002,-0.004,0.005,0.014,-0.005,-0.002,-1.5,0.032,0.499,0,0
70.99,1,-0.067,-0.006,-0.013,-0.02,-0.006,-0.003,-1.5,0.033,0.501,0,0
71.1,1,-0.051,0.007,-0.009,-0.048,0,-0.01,-1.5,0.031,0.503,0,0
71.19,1,-0.03,-0.014,0.007,-0.041,-0.002,-0.002,-1.5,0.033,0.505,0,0
71.29,1,0.018,0.001,0.007,-0.016,-0.006,0.004,-1.5,0.034,0.508,0,0
71.39,1,0.048,0.018,-0.002,0.02,0.004,0.003,-1.498,0.033,0.511,0,0
71.49,1,0.034,-0.017,-0.002,0.035,0.002,-0.003,-1.499,0.034,0.514,0,0
71.59,1,0.021,0.002,0.005,0.026,-0.007,0.003,-1.499,0.032,0.516,0,0
71.72,1,0.005,0.011,0.003,0.017,0.004,0.003,-1.498,0.032,0.518,0,0
71.79,1,-0.01,0.017,-0.014,-0.002,0.012,-0.002,-1.496,0.033,0.521,0,0
71.89,1,0.012,-0.001,-0.009,0.005,0.011,-0.009,-1.495,0.035,0.523,0,0
71.99,1,0.045,0.049,-0.011,0.026,0.018,-0.011,-1.494,0.034,0.525,0,0
72.1,1,0.005,0.023,-0.007,0.018,0.028,-0.011,-1.494,0.032,0.528,0,0
72.2,1,0.015,0.007,0.005,0.016,0.019,-0.002,-1.495,0.032,0.53,0,0
72.3,1,0.064,0.017,-0.011,0.034,0.018,-0.006,-1.492,0.031,0.532,0,0
72.4,1,0.057,-0.007,0.001,0.047,0.005,-0.001,-1.492,0.033,0.534,0,0
72.5,1,0.05,0.033,0.003,0.057,0.015,-0.001,-1.492,0.036,0.536,0,0
72.6,1,-0.013,0.037,0.018,0.023,0.028,0.006,-1.491,0.034,0.538,0,0
72.7,1,0.001,0.05,0.001,0.002,0.037,0.01,-1.492,0.033,0.54,0,0
72.81,1,0.039,0.035,0.016,0.018,0.037,0.014,-1.491,0.025,0.541,0,0
72.9,1,0.052,0.078,-0.016,0.043,0.054,-0.006,-1.489,0.022,0.542,0,0
73,1,0.002,0.058,0.018,0.025,0.062,0.008,-1.492,0.021,0.543,0,0
73.1,1,-0.03,0.037,0.011,-0.006,0.052,0.009,-1.494,0.02,0.544,0,0
73.2,1,0.006,0.047,0.018,-0.002,0.051,0.014,-1.495,0.023,0.545,0,0
73.3,1,0.066,0.065,0.01,0.028,0.051,0.012,-1.497,0.028,0.545,0,0
73.41,1,0.052,0.042,-0.004,0.046,0.05,0.007,-1.495,0.03,0.546,0,0
73.51,1,-0.033,0.05,-0.013,0.02,0.049,-0.002,-1.495,0.035,0.546,0,0
73.6,1,-0.078,0.084,-0.005,-0.033,0.06,-0.007,-1.496,0.031,0.546,0,0
73.7,1,-0.04,0.013,0.034,-0.052,0.055,0.006,-1.496,0.033,0.546,0,0
73.8,1,0.079,-0.003,0.026,0.003,0.014,0.027,-1.494,0.035,0.547,0,0
73.9,1,0.106,0.039,-0.011,0.065,0.01,0.004,-1.491,0.036,0.547,0,0
74,1,0.034,0.061,0.006,0.069,0.052,0.007,-1.491,0.036,0.547,0,0
74.1,1,-0.057,0.072,0,0.011,0.067,0.004,-1.492,0.038,0.546,0,0
74.2,1,-0.149,0.029,-0.007,-0.074,0.049,-0.004,-1.493,0.038,0.546,0,0
74.3,1,-0.084,0.032,0.001,-0.101,0.039,-0.003,-1.494,0.037,0.546,0,0
74.41,1,-0.06,0.025,-0.015,-0.081,0.029,-0.008,-1.494,0.033,0.546,0,0
74.5,1,0.017,0.05,0.041,-0.036,0.037,0.013,-1.5,0.031,0.547,0,0
74.61,1,0.099,0.073,0.006,0.037,0.061,0.015,-1.501,0.032,0.546,0,0
74.71,1,0.039,0.066,0.005,0.049,0.061,0.011,-1.503,0.034,0.546,0,0
74.81,1,-0.023,0.068,0.011,0.02,0.063,0.007,-1.503,0.035,0.546,0,0
74.91,1,0.001,0.053,-0.002,0,0.062,0.007,-1.502,0.031,0.546,0,0
75.01,1,-0.022,0.042,-0.012,-0.007,0.049,-0.004,-1.5,0.025,0.546,0,0
75.11,1,-0.04,0.079,-0.002,-0.027,0.056,-0.005,-1.501,0.02,0.544,0,0
75.21,1,-0.071,0.097,-0.009,-0.05,0.081,-0.007,-1.503,0.013,0.542,0,0
75.31,1,-0.017,0.102,0.021,-0.04,0.091,0.004,-1.506,0.007,0.54,0,0
75.41,1,0.019,0.099,-0.004,-0.008,0.114,0.005,-1.507,0.01,0.537,0,0
75.51,1,-0.022,0.043,0.027,-0.01,0.07,0.015,-1.507,0.014,0.534,0,0
75.62,1,0,0.048,0.026,-0.01,0.051,0.022,-1.507,0.014,0.532,0,0
75.72,1,0.021,0.04,0.022,0.004,0.048,0.022,-1.507,0.009,0.529,0,0
75.81,1,0.016,0.031,0.006,0.017,0.043,0.018,-1.508,0.013,0.528,0,0
75.91,1,-0.03,0.034,0.012,-0.002,0.037,0.009,-1.508,0.012,0.527,0,0
76.01,1,-0.011,0.01,0.02,-0.012,0.023,0.018,-1.51,0.008,0.526,0,0
76.11,1,-0.027,-0.008,0,-0.02,0.006,0.009,-1.51,0.01,0.525,0,0
76.22,1,-0.041,0.005,0.008,-0.033,0.002,0.01,-1.512,0.013,0.524,0,0
76.31,1,-0.02,0.021,-0.012,-0.03,0.009,-0.002,-1.512,0.014,0.523,0,0
76.42,1,-0.033,0.003,-0.002,-0.025,0.011,-0.003,-1.512,0.016,0.522,0,0
76.51,1,0.036,0.053,-0.01,-0.002,0.025,-0.008,-1.51,0.014,0.521,0,0
76.61,1,0.019,0.023,-0.042,0.015,0.03,-0.019,-1.506,0.01,0.519,0,0
76.71,1,-0.005,0.05,-0.017,0.007,0.036,-0.028,-1.503,0.011,0.517,0,0
76.81,1,0.031,0.08,-0.018,0.014,0.057,-0.017,-1.502,0.013,0.514,0,0
76.92,1,0.054,0.096,-0.05,0.034,0.083,-0.034,-1.497,0.008,0.511,0,0
77.01,1,0.051,0.091,-0.028,0.043,0.086,-0.034,-1.495,0.009,0.508,0,0
77.11,1,0,0.079,-0.037,0.033,0.085,-0.035,-1.495,0.01,0.504,0,0
77.21,1,-0.058,0.071,-0.006,-0.009,0.084,-0.027,-1.496,0.012,0.501,0,0
77.32,1,-0.037,0.093,0.003,-0.036,0.081,-0.006,-1.496,0.014,0.498,0,0
77.42,1,-0.015,0.012,0.01,-0.031,0.054,0.001,-1.497,0.018,0.494,0,0
77.53,1,0.001,0.036,0.019,-0.013,0.037,0.014,-1.496,0.021,0.491,0,0
77.62,1,0.021,0.033,0.008,0.003,0.04,0.007,-1.495,0.02,0.488,0,0
77.72,1,0.008,0.039,-0.013,0.011,0.033,0.008,-1.494,0.016,0.485,0,0
77.82,1,-0.016,0.039,-0.006,-0.003,0.032,-0.01,-1.494,0.019,0.481,0,0
77.92,1,-0.022,0.006,0.023,-0.016,0.025,0.01,-1.493,0.019,0.478,0,0
78.02,1,-0.022,0.047,-0.034,-0.015,0.037,-0.008,-1.492,0.02,0.475,0,0
78.12,1,-0.009,0.004,0.022,-0.019,0.027,-0.004,-1.493,0.019,0.473,0,0
78.22,1,0.029,-0.041,0.019,0.004,-0.015,0.018,-1.492,0.016,0.471,0,0
78.32,1,0.016,0.06,-0.005,0.019,0.009,0.003,-1.492,0.012,0.469,0,0
78.42,1,-0.03,0.099,0.005,-0.004,0.064,0.004,-1.493,0.012,0.466,0,0
78.53,1,-0.027,0.079,0.003,-0.018,0.082,0.003,-1.494,0.016,0.463,0,0
78.62,1,-0.03,0.047,0.008,-0.028,0.059,0.005,-1.494,0.019,0.46,0,0
78.72,1,0.018,0.019,0.029,-0.01,0.044,0.016,-1.493,0.022,0.457,0,0
78.82,1,0.011,0.017,0.001,0.009,0.025,0.015,-1.493,0.025,0.454,0,0
78.92,1,-0.01,-0.005,0.02,0.001,0.016,0.01,-1.491,0.013,0.451,0,0
79.02,1,-0.009,0.016,0.032,-0.008,0.006,0.024,-1.495,0.004,0.448,0,0
79.12,1,-0.018,0.013,0.008,-0.011,0.014,0.019,-1.496,0.005,0.445,0,0
79.23,1,0.001,0.035,-0.009,-0.007,0.024,0.004,-1.496,0.011,0.442,0,0
79.33,1,-0.005,0.017,-0.011,-0.007,0.021,-0.003,-1.497,0.017,0.439,0,0
79.42,1,-0.026,0.02,-0.047,-0.013,0.016,-0.024,-1.492,0.013,0.436,0,0
79.52,1,-0.005,0.02,-0.044,-0.015,0.02,-0.035,-1.486,0.01,0.433,0,0
79.62,1,-0.018,0.042,-0.061,-0.012,0.03,-0.049,-1.478,0.006,0.429,0,0
79.73,1,-0.037,0.02,-0.045,-0.025,0.034,-0.053,-1.475,0.009,0.425,0,0
79.83,1,-0.003,0.049,-0.051,-0.02,0.03,-0.046,-1.473,0.013,0.422,0,0
79.93,1,0.008,0.066,-0.032,-0.003,0.051,-0.046,-1.47,0.01,0.417,0,0
80.03,1,0.015,0.064,-0.023,0.007,0.06,-0.031,-1.469,0.004,0.413,0,0
80.13,1,0.01,0.048,0.03,0.007,0.052,-0.006,-1.47,-0.001,0.409,0,0
80.23,1,0.026,0.012,0.04,0.02,0.038,0.023,-1.474,0.001,0.404,0,0
80.33,1,-0.009,-0.023,0.018,0.012,0.01,0.023,-1.475,0.001,0.401,0,0
80.43,1,-0.058,-0.017,0.038,-0.024,-0.011,0.028,-1.478,0.003,0.398,0,0
80.54,1,-0.025,0.003,0.024,-0.034,-0.007,0.03,-1.483,0.008,0.395,0,0
80.63,1,-0.024,0.002,0.01,-0.025,-0.001,0.02,-1.485,0.009,0.392,0,0
80.73,1,-0.011,0.011,0.032,-0.023,0.007,0.022,-1.488,0.005,0.388,0,0
80.83,1,-0.016,0.045,0.023,-0.015,0.022,0.025,-1.491,0,0.384,0,0
80.93,1,0.011,0.005,0.039,-0.002,0.021,0.03,-1.494,0.001,0.38,0,0
81.03,1,-0.002,0.003,0.03,0.001,0.01,0.033,-1.497,0.002,0.376,0,0
81.13,1,-0.004,0.019,0.013,-0.004,0.009,0.025,-1.499,0.002,0.372,0,0
81.23,1,-0.02,0.023,0.028,-0.012,0.021,0.023,-1.502,0,0.368,0,0
81.33,1,0.006,0.016,0.019,-0.012,0.015,0.023,-1.504,0,0.364,0,0
81.43,1,-0.011,0.021,0.011,-0.003,0.018,0.016,-1.505,0,0.36,0,0
81.53,1,-0.051,0.019,-0.017,-0.017,0.022,0.003,-1.506,-0.005,0.355,0,0
81.63,1,-0.122,0.02,-0.031,-0.072,0.018,-0.02,-1.509,-0.007,0.35,0,0
81.74,1,-0.052,0.066,-0.011,-0.081,0.036,-0.012,-1.511,-0.01,0.345,0,0
81.83,1,0.052,0.073,-0.042,-0.016,0.06,-0.026,-1.506,-0.014,0.338,0,0
81.93,1,0.063,0.071,-0.052,0.035,0.071,-0.039,-1.501,-0.016,0.332,0,0
82.03,1,-0.006,0.055,-0.034,0.023,0.06,-0.042,-1.498,-0.017,0.325,0,0
82.13,1,-0.042,0.049,-0.035,-0.013,0.058,-0.038,-1.495,-0.02,0.319,0,0
82.23,1,-0.038,0.053,-0.043,-0.027,0.054,-0.038,-1.49,-0.023,0.312,0,0
82.33,1,-0.009,0.036,-0.027,-0.022,0.045,-0.036,-1.487,-0.029,0.306,0,0
82.44,1,-0.032,0.032,-0.044,-0.023,0.037,-0.036,-1.484,-0.032,0.3,0,0
82.54,1,-0.058,0.03,-0.032,-0.037,0.035,-0.037,-1.483,-0.032,0.293,0,0
82.64,1,-0.069,0.032,0.011,-0.058,0.031,-0.018,-1.486,-0.035,0.287,0,0
82.74,1,-0.036,0.019,0.022,-0.052,0.028,0.006,-1.489,-0.038,0.28,0,0
82.84,1,0,0.014,0.023,-0.026,0.022,0.015,-1.492,-0.038,0.274,0,0
82.94,1,0.016,-0.007,0.026,-0.006,0.007,0.021,-1.494,-0.036,0.269,0,0
83.04,1,0.016,-0.043,0.019,0.009,-0.018,0.024,-1.496,-0.032,0.265,0,0
83.14,1,0,-0.041,0.005,0.012,-0.03,0.013,-1.497,-0.027,0.261,0,0
83.24,1,-0.014,-0.054,0.011,-0.004,-0.043,0.011,-1.499,-0.022,0.257,0,0
83.34,1,-0.015,-0.041,0.019,-0.012,-0.047,0.015,-1.502,-0.018,0.253,0,0
83.44,1,-0.016,-0.026,0.021,-0.013,-0.038,0.018,-1.504,-0.016,0.249,0,0
83.54,1,-0.03,-0.005,0.009,-0.021,-0.022,0.015,-1.507,-0.015,0.245,0,0
83.64,1,-0.024,-0.015,0.004,-0.024,-0.016,0.01,-1.509,-0.015,0.242,0,0
83.74,1,-0.063,-0.003,0.002,-0.042,-0.008,0.005,-1.51,-0.012,0.238,0,0
83.84,1,-0.051,-0.013,0.018,-0.055,-0.01,0.008,-1.512,-0.009,0.234,0,0
83.94,1,0.006,-0.027,-0.007,-0.027,-0.017,0.004,-1.512,-0.008,0.23,0,0
84.05,1,0.037,-0.021,0,0.008,-0.023,0,-1.511,-0.008,0.227,0,0
84.15,1,-0.001,-0.008,-0.006,0.012,-0.017,-0.002,-1.511,-0.009,0.223,0,0
84.24,1,-0.028,-0.004,0.015,-0.006,-0.008,0.002,-1.512,-0.009,0.219,0,0
84.34,1,-0.013,0,-0.003,-0.014,-0.006,0.005,-1.513,-0.006,0.216,0,0
84.44,1,-0.017,0.061,-0.008,-0.019,0.021,-0.005,-1.514,-0.006,0.211,0,0
84.54,1,-0.018,0.016,0.004,-0.017,0.034,-0.001,-1.515,-0.009,0.206,0,0
84.65,1,0.001,0.015,0.002,-0.009,0.021,0.002,-1.516,-0.015,0.2,0,0
84.74,1,0.024,0.021,0.011,0.006,0.017,0.004,-1.516,-0.018,0.194,0,0
84.85,1,0.009,0.027,-0.008,0.015,0.023,0.002,-1.516,-0.022,0.189,0,0
84.95,1,-0.032,0.005,-0.018,-0.007,0.015,-0.012,-1.518,-0.024,0.183,0,0
85.05,1,-0.013,-0.023,0.011,-0.02,-0.001,-0.003,-1.518,-0.025,0.179,0,0
85.15,1,0.036,-0.009,-0.014,0.004,-0.006,0,-1.517,-0.024,0.176,0,0
85.26,1,0.036,-0.031,0.002,0.035,-0.018,-0.004,-1.516,-0.024,0.173,0,0
85.35,1,0.001,-0.054,-0.009,0.016,-0.037,0.001,-1.515,-0.026,0.169,0,0
85.45,1,0.003,-0.018,-0.002,0.014,-0.038,-0.003,-1.516,-0.026,0.166,0,0
85.55,1,-0.058,0.011,0.001,-0.024,-0.007,-0.012,-1.518,-0.026,0.163,0,0
85.65,1,-0.103,-0.025,-0.038,-0.068,-0.019,-0.01,-1.519,-0.028,0.159,0,0
85.76,1,-0.11,0.013,-0.03,-0.093,-0.006,-0.031,-1.522,-0.032,0.156,0,0
85.85,1,-0.038,0.088,0.001,-0.082,0.048,-0.014,-1.526,-0.034,0.151,0,0
85.95,1,0.021,0.042,0,-0.019,0.05,-0.008,-1.527,-0.033,0.146,0,0
86.05,1,0.066,0.031,0.017,0.023,0.044,0.005,-1.527,-0.031,0.141,0,0
86.15,1,0.036,-0.003,-0.022,0.036,0.008,-0.006,-1.526,-0.032,0.136,0,0
86.26,1,0.04,-0.022,-0.013,0.04,0,-0.009,-1.526,-0.034,0.131,0,0
86.35,1,-0.012,-0.004,-0.005,0.021,-0.006,-0.009,-1.526,-0.038,0.126,0,0
86.45,1,-0.013,-0.011,-0.014,0,-0.009,-0.009,-1.522,-0.042,0.122,0,0
86.55,1,-0.079,0.034,-0.019,-0.038,0.017,-0.015,-1.52,-0.041,0.118,0,0
86.65,1,-0.064,-0.055,0.006,-0.061,-0.013,-0.008,-1.521,-0.039,0.113,0,0
86.75,1,-0.017,0.014,-0.002,-0.047,-0.007,-0.001,-1.522,-0.039,0.109,0,0
86.85,1,0.039,0.012,-0.004,-0.001,0.001,-0.004,-1.522,-0.039,0.105,0,0
87.05,1,-0.011,0.02,-0.013,0.001,-0.01,-0.009,-1.524,-0.044,0.096,0,0
87.15,1,0.008,0.039,-0.004,-0.002,0.022,-0.006,-1.524,-0.045,0.091,0,0
87.25,1,0.011,0.03,-0.012,0.008,0.032,-0.007,-1.523,-0.047,0.086,0,0
87.36,1,-0.009,0.018,-0.018,0.003,0.024,-0.014,-1.521,-0.047,0.082,0,0
87.46,1,-0.04,-0.004,-0.009,-0.014,0.012,-0.014,-1.52,-0.044,0.076,0,0
87.56,1,-0.035,0.02,0.007,-0.037,0.011,-0.004,-1.521,-0.049,0.07,0,0
87.66,1,0,0.032,0.005,-0.02,0.02,0.004,-1.521,-0.054,0.064,0,0
87.76,1,0.01,0.046,-0.008,-0.004,0.031,0,-1.521,-0.054,0.057,0,0
87.86,1,-0.013,0.06,-0.009,-0.002,0.05,-0.007,-1.522,-0.056,0.05,0,0
87.97,1,-0.024,0.052,0,-0.013,0.054,-0.009,-1.522,-0.063,0.044,0,0
88.06,1,-0.013,0.035,0.002,-0.018,0.047,0.004,-1.52,-0.071,0.037,0,0
88.16,1,0.029,0.031,-0.005,-0.002,0.039,0.001,-1.519,-0.077,0.031,0,0
88.26,1,0.001,-0.01,0.016,0.013,0.013,0.005,-1.52,-0.077,0.025,0,0
88.36,1,-0.053,0.004,-0.02,-0.019,0.007,-0.006,-1.521,-0.078,0.019,0,0
88.46,1,-0.045,-0.012,0.02,-0.035,-0.003,0.001,-1.522,-0.079,0.014,0,0
88.56,1,0,-0.03,-0.013,-0.021,-0.014,0,-1.523,-0.076,0.009,0,0
88.67,1,-0.006,-0.005,-0.019,-0.011,-0.018,-0.007,-1.522,-0.07,0.005,0,0
88.76,1,-0.044,-0.084,-0.003,-0.026,-0.042,-0.011,-1.523,-0.07,0.001,0,0
88.86,1,-0.031,-0.056,0,-0.035,-0.055,-0.004,-1.524,-0.071,-0.003,0,0
88.96,1,0.003,-0.015,-0.012,-0.018,-0.038,-0.008,-1.524,-0.072,-0.007,0,0
89.07,1,0.023,0.003,-0.02,0.008,-0.019,-0.015,-1.522,-0.068,-0.012,0,0
89.16,1,-0.031,0.029,-0.01,-0.006,0.005,-0.014,-1.521,-0.072,-0.016,0,0
89.27,1,-0.04,-0.022,-0.006,-0.027,-0.001,-0.008,-1.521,-0.078,-0.022,0,0
89.36,1,-0.03,0.01,-0.011,-0.031,-0.002,-0.008,-1.521,-0.08,-0.027,0,0
89.46,1,-0.027,0.006,-0.014,-0.028,0.01,-0.011,-1.521,-0.077,-0.033,0,0
89.56,1,-0.019,0.03,0.006,-0.028,0.014,-0.005,-1.521,-0.073,-0.038,0,0
89.67,1,-0.024,0.007,-0.013,-0.023,0.017,-0.01,-1.521,-0.072,-0.043,0,0
89.76,1,0.02,-0.053,0.013,-0.006,-0.015,-0.001,-1.522,-0.072,-0.048,0,0
89.88,1,0.004,-0.037,0.001,0.009,-0.03,0.006,-1.522,-0.074,-0.054,0,0
89.97,1,-0.033,-0.026,-0.002,-0.009,-0.033,0.002,-1.522,-0.076,-0.059,0,0
90.07,1,-0.04,-0.02,-0.008,-0.031,-0.027,-0.003,-1.522,-0.074,-0.063,0,0
90.17,1,-0.001,-0.015,0,-0.022,-0.023,-0.004,-1.523,-0.076,-0.068,0,0
90.27,1,0.014,-0.011,-0.013,0.001,-0.016,-0.006,-1.521,-0.077,-0.072,0,0
90.37,1,-0.007,0.007,-0.021,0,0.003,-0.016,-1.518,-0.078,-0.076,0,0
90.47,1,-0.006,-0.027,0.008,-0.005,-0.019,-0.005,-1.518,-0.079,-0.081,0,0
90.57,1,-0.048,-0.046,0.002,-0.025,-0.033,0.001,-1.518,-0.079,-0.085,0,0
90.67,1,-0.066,-0.007,-0.019,-0.043,-0.018,-0.006,-1.519,-0.078,-0.089,0,0
90.77,1,-0.064,-0.054,0.007,-0.058,-0.028,-0.008,-1.522,-0.076,-0.094,0,0
90.87,1,-0.018,-0.098,0.003,-0.049,-0.073,0.002,-1.524,-0.075,-0.099,0,0
90.97,1,0.037,-0.084,-0.001,0,-0.077,0.001,-1.524,-0.078,-0.103,0,0
91.08,1,-0.052,-0.047,-0.01,-0.009,-0.064,-0.004,-1.525,-0.08,-0.107,0,0
91.17,1,-0.032,-0.022,0.002,-0.038,-0.047,-0.002,-1.526,-0.08,-0.111,0,0
91.27,1,-0.029,-0.066,-0.012,-0.026,-0.047,-0.004,-1.526,-0.081,-0.114,0,0
91.37,1,-0.019,-0.043,-0.022,-0.026,-0.051,-0.014,-1.524,-0.075,-0.116,0,0
91.47,1,-0.043,-0.071,-0.01,-0.025,-0.059,-0.015,-1.526,-0.07,-0.119,0,0
91.58,1,-0.028,-0.04,0.002,-0.033,-0.052,-0.007,-1.527,-0.069,-0.123,0,0
91.67,1,-0.008,-0.039,0.012,-0.026,-0.039,0.003,-1.53,-0.064,-0.127,0,0
91.77,1,0.006,-0.051,0.005,-0.006,-0.051,0.006,-1.531,-0.064,-0.13,0,0
91.87,1,-0.033,-0.045,-0.006,-0.012,-0.048,0.001,-1.532,-0.067,-0.134,0,0
91.98,1,-0.041,-0.018,-0.01,-0.029,-0.033,-0.005,-1.533,-0.065,-0.138,0,0
92.08,1,-0.033,-0.021,-0.007,-0.038,-0.024,-0.008,-1.534,-0.063,-0.141,0,0
92.19,1,-0.023,-0.036,-0.007,-0.027,-0.029,-0.004,-1.534,-0.06,-0.144,0,0
92.29,1,-0.016,-0.019,-0.032,-0.022,-0.029,-0.018,-1.531,-0.054,-0.147,0,0
92.38,1,-0.035,-0.024,-0.025,-0.025,-0.02,-0.026,-1.53,-0.049,-0.15,0,0
92.48,1,-0.017,-0.026,-0.009,-0.026,-0.027,-0.015,-1.529,-0.047,-0.153,0,0
92.58,1,0.007,-0.003,-0.023,-0.013,-0.014,-0.021,-1.528,-0.041,-0.157,0,0
92.68,1,0.005,-0.024,-0.023,-0.005,-0.013,-0.021,-1.527,-0.038,-0.16,0,0
92.79,1,-0.029,-0.05,0.001,-0.004,-0.032,-0.009,-1.528,-0.039,-0.163,0,0
92.88,1,-0.03,-0.019,-0.005,-0.027,-0.034,-0.006,-1.528,-0.04,-0.166,0,0
92.98,1,0.013,0.075,-0.022,-0.009,0.014,-0.014,-1.528,-0.041,-0.17,0,0
93.08,1,0.004,0.041,-0.018,0.007,0.044,-0.018,-1.528,-0.041,-0.175,0,0
93.19,1,-0.018,0.045,-0.018,-0.002,0.041,-0.016,-1.528,-0.043,-0.18,0,0
93.28,1,-0.028,0.037,-0.02,-0.022,0.035,-0.019,-1.527,-0.05,-0.185,0,0
93.38,1,0,0.007,-0.001,-0.015,0.028,-0.013,-1.528,-0.052,-0.189,0,0
93.48,1,-0.011,-0.006,0,-0.011,0.011,-0.006,-1.527,-0.052,-0.193,0,0
93.58,1,-0.002,-0.012,0.001,-0.007,-0.006,0,-1.528,-0.048,-0.196,0,0
93.68,1,-0.005,0.005,0.006,-0.002,0.005,0.001,-1.529,-0.044,-0.199,0,0
93.79,1,-0.009,0.003,0.002,-0.004,0,0.004,-1.529,-0.048,-0.202,0,0
93.88,1,-0.021,-0.023,-0.001,-0.015,-0.007,0.002,-1.53,-0.047,-0.204,0,0
